{
  "_comment": "OKX go-live artifact. Regenerated after --validate overwrote it. OKX=tagged (44025 PASS); phi=held for 44065. Do not let --validate clobber.",
  "spots": [
    {
      "slug": "breezy-point",
      "name": "Breezy Point",
      "nwps_wfo": "okx",
      "nwps_grid": "CG1",
      "nwps_node_lat": 40.53418,
      "nwps_node_lng": -73.94317,
      "nwps_node_distance_m": 995,
      "nwps_buoy_id": "44025"
    },
    {
      "slug": "rockaway-90th-street",
      "name": "Rockaway 90th Street",
      "nwps_wfo": "okx",
      "nwps_grid": "CG1",
      "nwps_node_lat": 40.56685,
      "nwps_node_lng": -73.81646,
      "nwps_node_distance_m": 1528,
      "nwps_buoy_id": "44025"
    },
    {
      "slug": "long-beach-ny",
      "name": "Long Beach NY",
      "nwps_wfo": "okx",
      "nwps_grid": "CG1",
      "nwps_node_lat": 40.56685,
      "nwps_node_lng": -73.66863,
      "nwps_node_distance_m": 1682,
      "nwps_buoy_id": "44025"
    },
    {
      "slug": "rockaway-beach",
      "name": "Rockaway Beach",
      "nwps_wfo": "okx",
      "nwps_grid": "CG1",
      "nwps_node_lat": 40.58319,
      "nwps_node_lng": -73.79534,
      "nwps_node_distance_m": 975,
      "nwps_buoy_id": "44025"
    },
    {
      "slug": "lido-beach",
      "name": "Lido Beach",
      "nwps_wfo": "okx",
      "nwps_grid": "CG1",
      "nwps_node_lat": 40.58319,
      "nwps_node_lng": -73.60528,
      "nwps_node_distance_m": 137,
      "nwps_buoy_id": "44025"
    },
    {
      "slug": "west-end-long-beach",
      "name": "West End Long Beach",
      "nwps_wfo": "okx",
      "nwps_grid": "CG1",
      "nwps_node_lat": 40.58319,
      "nwps_node_lng": -73.73199,
      "nwps_node_distance_m": 602,
      "nwps_buoy_id": "44025"
    },
    {
      "slug": "point-lookout",
      "name": "Point Lookout",
      "nwps_wfo": "okx",
      "nwps_grid": "CG1",
      "nwps_node_lat": 40.58319,
      "nwps_node_lng": -73.58416,
      "nwps_node_distance_m": 392,
      "nwps_buoy_id": "44025"
    },
    {
      "slug": "rockaway-67th-street",
      "name": "Rockaway 67th Street",
      "nwps_wfo": "okx",
      "nwps_grid": "CG1",
      "nwps_node_lat": 40.58319,
      "nwps_node_lng": -73.79534,
      "nwps_node_distance_m": 271,
      "nwps_buoy_id": "44025"
    },
    {
      "slug": "jones-beach",
      "name": "Jones Beach",
      "nwps_wfo": "okx",
      "nwps_grid": "CG1",
      "nwps_node_lat": 40.58319,
      "nwps_node_lng": -73.52081,
      "nwps_node_distance_m": 628,
      "nwps_buoy_id": "44025"
    },
    {
      "slug": "gilgo-beach",
      "name": "Gilgo Beach",
      "nwps_wfo": "okx",
      "nwps_grid": "CG1",
      "nwps_node_lat": 40.61586,
      "nwps_node_lng": -73.37298,
      "nwps_node_distance_m": 1883,
      "nwps_buoy_id": "44025"
    },
    {
      "slug": "robert-moses-state-park",
      "name": "Robert Moses State Park",
      "nwps_wfo": "okx",
      "nwps_grid": "CG1",
      "nwps_node_lat": 40.61586,
      "nwps_node_lng": -73.28851,
      "nwps_node_distance_m": 881,
      "nwps_buoy_id": "44025"
    },
    {
      "slug": "fire-island",
      "name": "Fire Island",
      "nwps_wfo": "okx",
      "nwps_grid": "CG1",
      "nwps_node_lat": 40.61586,
      "nwps_node_lng": -73.24627,
      "nwps_node_distance_m": 1061,
      "nwps_buoy_id": "44025"
    },
    {
      "slug": "saltaire",
      "name": "Saltaire",
      "nwps_wfo": "okx",
      "nwps_grid": "CG1",
      "nwps_node_lat": 40.6322,
      "nwps_node_lng": -73.18292,
      "nwps_node_distance_m": 630,
      "nwps_buoy_id": "44025"
    },
    {
      "slug": "ocean-bay-park",
      "name": "Ocean Bay Park",
      "nwps_wfo": "okx",
      "nwps_grid": "CG1",
      "nwps_node_lat": 40.6322,
      "nwps_node_lng": -73.14068,
      "nwps_node_distance_m": 1582,
      "nwps_buoy_id": "44025"
    },
    {
      "slug": "davis-park",
      "name": "Davis Park",
      "nwps_wfo": "okx",
      "nwps_grid": "CG1",
      "nwps_node_lat": 40.68121,
      "nwps_node_lng": -72.99286,
      "nwps_node_distance_m": 867,
      "nwps_buoy_id": "44025"
    },
    {
      "slug": "smith-point-beach",
      "name": "Smith Point Beach",
      "nwps_wfo": "okx",
      "nwps_grid": "CG1",
      "nwps_node_lat": 40.73022,
      "nwps_node_lng": -72.84503,
      "nwps_node_distance_m": 1638,
      "nwps_buoy_id": "44025"
    },
    {
      "slug": "cupsogue-beach",
      "name": "Cupsogue Beach",
      "nwps_wfo": "okx",
      "nwps_grid": "CG1",
      "nwps_node_lat": 40.76289,
      "nwps_node_lng": -72.73944,
      "nwps_node_distance_m": 756,
      "nwps_buoy_id": "44025"
    },
    {
      "slug": "ponquogue-beach",
      "name": "Ponquogue Beach",
      "nwps_wfo": "okx",
      "nwps_grid": "CG1",
      "nwps_node_lat": 40.82824,
      "nwps_node_lng": -72.48602,
      "nwps_node_distance_m": 1132,
      "nwps_buoy_id": "44025"
    },
    {
      "slug": "shinnecock-inlet",
      "name": "Shinnecock Inlet",
      "nwps_wfo": "okx",
      "nwps_grid": "CG1",
      "nwps_node_lat": 40.82824,
      "nwps_node_lng": -72.48602,
      "nwps_node_distance_m": 1383,
      "nwps_buoy_id": "44025"
    },
    {
      "slug": "flying-point-beach",
      "name": "Flying Point Beach",
      "nwps_wfo": "okx",
      "nwps_grid": "CG1",
      "nwps_node_lat": 40.86092,
      "nwps_node_lng": -72.38043,
      "nwps_node_distance_m": 1050,
      "nwps_buoy_id": "44025"
    },
    {
      "slug": "mecox-beach",
      "name": "Mecox Beach",
      "nwps_wfo": "okx",
      "nwps_grid": "CG1",
      "nwps_node_lat": 40.87725,
      "nwps_node_lng": -72.31708,
      "nwps_node_distance_m": 1785,
      "nwps_buoy_id": "44025"
    },
    {
      "slug": "georgica-beach",
      "name": "Georgica Beach",
      "nwps_wfo": "okx",
      "nwps_grid": "CG1",
      "nwps_node_lat": 40.92626,
      "nwps_node_lng": -72.21149,
      "nwps_node_distance_m": 944,
      "nwps_buoy_id": "44025"
    },
    {
      "slug": "main-beach-east-hampton",
      "name": "Main Beach East Hampton",
      "nwps_wfo": "okx",
      "nwps_grid": "CG1",
      "nwps_node_lat": 40.9426,
      "nwps_node_lng": -72.16925,
      "nwps_node_distance_m": 806,
      "nwps_buoy_id": "44025"
    },
    {
      "slug": "hither-hills",
      "name": "Hither Hills",
      "nwps_wfo": "okx",
      "nwps_grid": "CG1",
      "nwps_node_lat": 40.99161,
      "nwps_node_lng": -72.02143,
      "nwps_node_distance_m": 1109,
      "nwps_buoy_id": "44025"
    },
    {
      "slug": "terrace",
      "name": "Terrace",
      "nwps_wfo": "okx",
      "nwps_grid": "CG1",
      "nwps_node_lat": 41.02429,
      "nwps_node_lng": -71.93696,
      "nwps_node_distance_m": 982,
      "nwps_buoy_id": "44025"
    },
    {
      "slug": "poles",
      "name": "Poles",
      "nwps_wfo": "okx",
      "nwps_grid": "CG1",
      "nwps_node_lat": 41.02429,
      "nwps_node_lng": -71.91584,
      "nwps_node_distance_m": 1580,
      "nwps_buoy_id": "44025"
    },
    {
      "slug": "ditch-plains",
      "name": "Ditch Plains",
      "nwps_wfo": "okx",
      "nwps_grid": "CG1",
      "nwps_node_lat": 41.02429,
      "nwps_node_lng": -71.91584,
      "nwps_node_distance_m": 1604,
      "nwps_buoy_id": "44025"
    },
    {
      "slug": "montauk-point",
      "name": "Montauk Point",
      "nwps_wfo": "okx",
      "nwps_grid": "CG1",
      "nwps_node_lat": 41.0733,
      "nwps_node_lng": -71.85248,
      "nwps_node_distance_m": 338,
      "nwps_buoy_id": "44025"
    },
    {
      "slug": "radars",
      "name": "Radars",
      "nwps_wfo": "okx",
      "nwps_grid": "CG1",
      "nwps_node_lat": 41.05699,
      "nwps_node_lng": -71.85254,
      "nwps_node_distance_m": 1264,
      "nwps_buoy_id": "44025"
    },
    {
      "slug": "turtle-cove-montauk",
      "name": "Turtle Cove Montauk",
      "nwps_wfo": "okx",
      "nwps_grid": "CG1",
      "nwps_node_lat": 41.05699,
      "nwps_node_lng": -71.85254,
      "nwps_node_distance_m": 1137,
      "nwps_buoy_id": "44025"
    },
    {
      "slug": "ocean-grove",
      "name": "Ocean Grove",
      "nwps_wfo": "phi",
      "nwps_grid": "CG1",
      "nwps_node_lat": 40.20744,
      "nwps_node_lng": -73.9854,
      "nwps_node_distance_m": 1466,
      "nwps_buoy_id": "44065"
    },
    {
      "slug": "asbury-park",
      "name": "Asbury Park",
      "nwps_wfo": "phi",
      "nwps_grid": "CG1",
      "nwps_node_lat": 40.22377,
      "nwps_node_lng": -73.9854,
      "nwps_node_distance_m": 1329,
      "nwps_buoy_id": "44065"
    },
    {
      "slug": "deal",
      "name": "Deal",
      "nwps_wfo": "phi",
      "nwps_grid": "CG1",
      "nwps_node_lat": 40.22377,
      "nwps_node_lng": -73.9854,
      "nwps_node_distance_m": 892,
      "nwps_buoy_id": "44065"
    },
    {
      "slug": "long-branch",
      "name": "Long Branch",
      "nwps_wfo": "phi",
      "nwps_grid": "CG1",
      "nwps_node_lat": 40.30546,
      "nwps_node_lng": -73.96429,
      "nwps_node_distance_m": 1123,
      "nwps_buoy_id": "44065"
    },
    {
      "slug": "pier-village",
      "name": "Pier Village",
      "nwps_wfo": "phi",
      "nwps_grid": "CG1",
      "nwps_node_lat": 40.30546,
      "nwps_node_lng": -73.96429,
      "nwps_node_distance_m": 1074,
      "nwps_buoy_id": "44065"
    },
    {
      "slug": "monmouth",
      "name": "Monmouth",
      "nwps_wfo": "phi",
      "nwps_grid": "CG1",
      "nwps_node_lat": 40.33813,
      "nwps_node_lng": -73.96429,
      "nwps_node_distance_m": 702,
      "nwps_buoy_id": "44065"
    },
    {
      "slug": "sea-bright",
      "name": "Sea Bright",
      "nwps_wfo": "phi",
      "nwps_grid": "CG1",
      "nwps_node_lat": 40.35447,
      "nwps_node_lng": -73.96429,
      "nwps_node_distance_m": 911,
      "nwps_buoy_id": "44065"
    },
    {
      "slug": "sandy-hook",
      "name": "Sandy Hook",
      "nwps_wfo": "phi",
      "nwps_grid": "CG1",
      "nwps_node_lat": 40.45249,
      "nwps_node_lng": -73.96429,
      "nwps_node_distance_m": 1584,
      "nwps_buoy_id": "44065"
    }
  ],
  "held": [],
  "trust_by_buoy": {
    "44025": "PASS",
    "44065": "PASS"
  },
  "trust_buoy": "44025+44065",
  "trust_note": "44025 PASS r=0.896 circ_std=11.2 pairs=38; OKX south-shore only. radars+turtle-cove re-added (OFFWIN was a per-cycle verdict, not a placement fail). | NJ/phi (8) added: 44065 PASS r=0.865 circ_std=16.6 pairs=43."
}