{
  "_comment": "OKX go-live artifact. Regenerated after --validate overwrote it. OKX=tagged (44025 PASS); phi=held for 44065. Do not let --validate clobber.",
  "spots": [
    {
      "slug": "breezy-point",
      "name": "Breezy Point",
      "nwps_wfo": "okx",
      "nwps_grid": "CG1",
      "nwps_node_lat": 40.53418,
      "nwps_node_lng": -73.94317,
      "nwps_node_distance_m": 995,
      "nwps_buoy_id": "44025"
    },
    {
      "slug": "rockaway-90th-street",
      "name": "Rockaway 90th Street",
      "nwps_wfo": "okx",
      "nwps_grid": "CG1",
      "nwps_node_lat": 40.56685,
      "nwps_node_lng": -73.81646,
      "nwps_node_distance_m": 1528,
      "nwps_buoy_id": "44025"
    },
    {
      "slug": "long-beach-ny",
      "name": "Long Beach NY",
      "nwps_wfo": "okx",
      "nwps_grid": "CG1",
      "nwps_node_lat": 40.56685,
      "nwps_node_lng": -73.66863,
      "nwps_node_distance_m": 1682,
      "nwps_buoy_id": "44025"
    },
    {
      "slug": "rockaway-beach",
      "name": "Rockaway Beach",
      "nwps_wfo": "okx",
      "nwps_grid": "CG1",
      "nwps_node_lat": 40.58319,
      "nwps_node_lng": -73.79534,
      "nwps_node_distance_m": 975,
      "nwps_buoy_id": "44025"
    },
    {
      "slug": "lido-beach",
      "name": "Lido Beach",
      "nwps_wfo": "okx",
      "nwps_grid": "CG1",
      "nwps_node_lat": 40.58319,
      "nwps_node_lng": -73.60528,
      "nwps_node_distance_m": 137,
      "nwps_buoy_id": "44025"
    },
    {
      "slug": "west-end-long-beach",
      "name": "West End Long Beach",
      "nwps_wfo": "okx",
      "nwps_grid": "CG1",
      "nwps_node_lat": 40.58319,
      "nwps_node_lng": -73.73199,
      "nwps_node_distance_m": 602,
      "nwps_buoy_id": "44025"
    },
    {
      "slug": "point-lookout",
      "name": "Point Lookout",
      "nwps_wfo": "okx",
      "nwps_grid": "CG1",
      "nwps_node_lat": 40.58319,
      "nwps_node_lng": -73.58416,
      "nwps_node_distance_m": 392,
      "nwps_buoy_id": "44025"
    },
    {
      "slug": "rockaway-67th-street",
      "name": "Rockaway 67th Street",
      "nwps_wfo": "okx",
      "nwps_grid": "CG1",
      "nwps_node_lat": 40.58319,
      "nwps_node_lng": -73.79534,
      "nwps_node_distance_m": 271,
      "nwps_buoy_id": "44025"
    },
    {
      "slug": "jones-beach",
      "name": "Jones Beach",
      "nwps_wfo": "okx",
      "nwps_grid": "CG1",
      "nwps_node_lat": 40.58319,
      "nwps_node_lng": -73.52081,
      "nwps_node_distance_m": 628,
      "nwps_buoy_id": "44025"
    },
    {
      "slug": "gilgo-beach",
      "name": "Gilgo Beach",
      "nwps_wfo": "okx",
      "nwps_grid": "CG1",
      "nwps_node_lat": 40.61586,
      "nwps_node_lng": -73.37298,
      "nwps_node_distance_m": 1883,
      "nwps_buoy_id": "44025"
    },
    {
      "slug": "robert-moses-state-park",
      "name": "Robert Moses State Park",
      "nwps_wfo": "okx",
      "nwps_grid": "CG1",
      "nwps_node_lat": 40.61586,
      "nwps_node_lng": -73.28851,
      "nwps_node_distance_m": 881,
      "nwps_buoy_id": "44025"
    },
    {
      "slug": "fire-island",
      "name": "Fire Island",
      "nwps_wfo": "okx",
      "nwps_grid": "CG1",
      "nwps_node_lat": 40.61586,
      "nwps_node_lng": -73.24627,
      "nwps_node_distance_m": 1061,
      "nwps_buoy_id": "44025"
    },
    {
      "slug": "saltaire",
      "name": "Saltaire",
      "nwps_wfo": "okx",
      "nwps_grid": "CG1",
      "nwps_node_lat": 40.6322,
      "nwps_node_lng": -73.18292,
      "nwps_node_distance_m": 630,
      "nwps_buoy_id": "44025"
    },
    {
      "slug": "ocean-bay-park",
      "name": "Ocean Bay Park",
      "nwps_wfo": "okx",
      "nwps_grid": "CG1",
      "nwps_node_lat": 40.6322,
      "nwps_node_lng": -73.14068,
      "nwps_node_distance_m": 1582,
      "nwps_buoy_id": "44025"
    },
    {
      "slug": "davis-park",
      "name": "Davis Park",
      "nwps_wfo": "okx",
      "nwps_grid": "CG1",
      "nwps_node_lat": 40.68121,
      "nwps_node_lng": -72.99286,
      "nwps_node_distance_m": 867,
      "nwps_buoy_id": "44025"
    },
    {
      "slug": "smith-point-beach",
      "name": "Smith Point Beach",
      "nwps_wfo": "okx",
      "nwps_grid": "CG1",
      "nwps_node_lat": 40.73022,
      "nwps_node_lng": -72.84503,
      "nwps_node_distance_m": 1638,
      "nwps_buoy_id": "44025"
    },
    {
      "slug": "cupsogue-beach",
      "name": "Cupsogue Beach",
      "nwps_wfo": "okx",
      "nwps_grid": "CG1",
      "nwps_node_lat": 40.76289,
      "nwps_node_lng": -72.73944,
      "nwps_node_distance_m": 756,
      "nwps_buoy_id": "44025"
    },
    {
      "slug": "ponquogue-beach",
      "name": "Ponquogue Beach",
      "nwps_wfo": "okx",
      "nwps_grid": "CG1",
      "nwps_node_lat": 40.82824,
      "nwps_node_lng": -72.48602,
      "nwps_node_distance_m": 1132,
      "nwps_buoy_id": "44025"
    },
    {
      "slug": "shinnecock-inlet",
      "name": "Shinnecock Inlet",
      "nwps_wfo": "okx",
      "nwps_grid": "CG1",
      "nwps_node_lat": 40.82824,
      "nwps_node_lng": -72.48602,
      "nwps_node_distance_m": 1383,
      "nwps_buoy_id": "44025"
    },
    {
      "slug": "flying-point-beach",
      "name": "Flying Point Beach",
      "nwps_wfo": "okx",
      "nwps_grid": "CG1",
      "nwps_node_lat": 40.86092,
      "nwps_node_lng": -72.38043,
      "nwps_node_distance_m": 1050,
      "nwps_buoy_id": "44025"
    },
    {
      "slug": "mecox-beach",
      "name": "Mecox Beach",
      "nwps_wfo": "okx",
      "nwps_grid": "CG1",
      "nwps_node_lat": 40.87725,
      "nwps_node_lng": -72.31708,
      "nwps_node_distance_m": 1785,
      "nwps_buoy_id": "44025"
    },
    {
      "slug": "georgica-beach",
      "name": "Georgica Beach",
      "nwps_wfo": "okx",
      "nwps_grid": "CG1",
      "nwps_node_lat": 40.92626,
      "nwps_node_lng": -72.21149,
      "nwps_node_distance_m": 944,
      "nwps_buoy_id": "44025"
    },
    {
      "slug": "main-beach-east-hampton",
      "name": "Main Beach East Hampton",
      "nwps_wfo": "okx",
      "nwps_grid": "CG1",
      "nwps_node_lat": 40.9426,
      "nwps_node_lng": -72.16925,
      "nwps_node_distance_m": 806,
      "nwps_buoy_id": "44025"
    },
    {
      "slug": "hither-hills",
      "name": "Hither Hills",
      "nwps_wfo": "okx",
      "nwps_grid": "CG1",
      "nwps_node_lat": 40.99161,
      "nwps_node_lng": -72.02143,
      "nwps_node_distance_m": 1109,
      "nwps_buoy_id": "44025"
    },
    {
      "slug": "terrace",
      "name": "Terrace",
      "nwps_wfo": "okx",
      "nwps_grid": "CG1",
      "nwps_node_lat": 41.02429,
      "nwps_node_lng": -71.93696,
      "nwps_node_distance_m": 982,
      "nwps_buoy_id": "44025"
    },
    {
      "slug": "poles",
      "name": "Poles",
      "nwps_wfo": "okx",
      "nwps_grid": "CG1",
      "nwps_node_lat": 41.02429,
      "nwps_node_lng": -71.91584,
      "nwps_node_distance_m": 1580,
      "nwps_buoy_id": "44025"
    },
    {
      "slug": "ditch-plains",
      "name": "Ditch Plains",
      "nwps_wfo": "okx",
      "nwps_grid": "CG1",
      "nwps_node_lat": 41.02429,
      "nwps_node_lng": -71.91584,
      "nwps_node_distance_m": 1604,
      "nwps_buoy_id": "44025"
    },
    {
      "slug": "montauk-point",
      "name": "Montauk Point",
      "nwps_wfo": "okx",
      "nwps_grid": "CG1",
      "nwps_node_lat": 41.0733,
      "nwps_node_lng": -71.85248,
      "nwps_node_distance_m": 338,
      "nwps_buoy_id": "44025"
    },
    {
      "slug": "radars",
      "name": "Radars",
      "nwps_wfo": "okx",
      "nwps_grid": "CG1",
      "nwps_node_lat": 41.05699,
      "nwps_node_lng": -71.85254,
      "nwps_node_distance_m": 1264,
      "nwps_buoy_id": "44025"
    },
    {
      "slug": "turtle-cove-montauk",
      "name": "Turtle Cove Montauk",
      "nwps_wfo": "okx",
      "nwps_grid": "CG1",
      "nwps_node_lat": 41.05699,
      "nwps_node_lng": -71.85254,
      "nwps_node_distance_m": 1137,
      "nwps_buoy_id": "44025"
    },
    {
      "slug": "ocean-grove",
      "name": "Ocean Grove",
      "nwps_wfo": "phi",
      "nwps_grid": "CG1",
      "nwps_node_lat": 40.20744,
      "nwps_node_lng": -73.9854,
      "nwps_node_distance_m": 1466,
      "nwps_buoy_id": "44065"
    },
    {
      "slug": "asbury-park",
      "name": "Asbury Park",
      "nwps_wfo": "phi",
      "nwps_grid": "CG1",
      "nwps_node_lat": 40.22377,
      "nwps_node_lng": -73.9854,
      "nwps_node_distance_m": 1329,
      "nwps_buoy_id": "44065"
    },
    {
      "slug": "deal",
      "name": "Deal",
      "nwps_wfo": "phi",
      "nwps_grid": "CG1",
      "nwps_node_lat": 40.22377,
      "nwps_node_lng": -73.9854,
      "nwps_node_distance_m": 892,
      "nwps_buoy_id": "44065"
    },
    {
      "slug": "long-branch",
      "name": "Long Branch",
      "nwps_wfo": "phi",
      "nwps_grid": "CG1",
      "nwps_node_lat": 40.30546,
      "nwps_node_lng": -73.96429,
      "nwps_node_distance_m": 1123,
      "nwps_buoy_id": "44065"
    },
    {
      "slug": "pier-village",
      "name": "Pier Village",
      "nwps_wfo": "phi",
      "nwps_grid": "CG1",
      "nwps_node_lat": 40.30546,
      "nwps_node_lng": -73.96429,
      "nwps_node_distance_m": 1074,
      "nwps_buoy_id": "44065"
    },
    {
      "slug": "monmouth",
      "name": "Monmouth",
      "nwps_wfo": "phi",
      "nwps_grid": "CG1",
      "nwps_node_lat": 40.33813,
      "nwps_node_lng": -73.96429,
      "nwps_node_distance_m": 702,
      "nwps_buoy_id": "44065"
    },
    {
      "slug": "sea-bright",
      "name": "Sea Bright",
      "nwps_wfo": "phi",
      "nwps_grid": "CG1",
      "nwps_node_lat": 40.35447,
      "nwps_node_lng": -73.96429,
      "nwps_node_distance_m": 911,
      "nwps_buoy_id": "44065"
    },
    {
      "slug": "sandy-hook",
      "name": "Sandy Hook",
      "nwps_wfo": "phi",
      "nwps_grid": "CG1",
      "nwps_node_lat": 40.45249,
      "nwps_node_lng": -73.96429,
      "nwps_node_distance_m": 1584,
      "nwps_buoy_id": "44065"
    },
    {
      "slug": "north-end-virginia-beach",
      "name": "North End Virginia Beach",
      "nwps_wfo": "akq",
      "nwps_grid": "CG1",
      "nwps_node_lat": 36.9035,
      "nwps_node_lng": -75.97566,
      "nwps_node_distance_m": 1122,
      "nwps_buoy_id": "44099"
    },
    {
      "slug": "virginia-beach-oceanfront",
      "name": "Virginia Beach Oceanfront",
      "nwps_wfo": "akq",
      "nwps_grid": "CG1",
      "nwps_node_lat": 36.83859,
      "nwps_node_lng": -75.95559,
      "nwps_node_distance_m": 1439,
      "nwps_buoy_id": "44099"
    },
    {
      "slug": "first-street-jetty-vb",
      "name": "First Street Jetty VB",
      "nwps_wfo": "akq",
      "nwps_grid": "CG1",
      "nwps_node_lat": 36.83859,
      "nwps_node_lng": -75.95559,
      "nwps_node_distance_m": 1376,
      "nwps_buoy_id": "44099"
    },
    {
      "slug": "croatan-beach",
      "name": "Croatan Beach",
      "nwps_wfo": "akq",
      "nwps_grid": "CG1",
      "nwps_node_lat": 36.82236,
      "nwps_node_lng": -75.95559,
      "nwps_node_distance_m": 1040,
      "nwps_buoy_id": "44099"
    },
    {
      "slug": "sandbridge-beach",
      "name": "Sandbridge Beach",
      "nwps_wfo": "akq",
      "nwps_grid": "CG1",
      "nwps_node_lat": 36.74122,
      "nwps_node_lng": -75.93553,
      "nwps_node_distance_m": 866,
      "nwps_buoy_id": "44099"
    },
    {
      "slug": "bradley-beach",
      "name": "Bradley Beach",
      "nwps_wfo": "phi",
      "nwps_grid": "CG1",
      "nwps_node_lat": 40.19457,
      "nwps_node_lng": -73.99138,
      "nwps_node_distance_m": 1301,
      "nwps_buoy_id": "44065"
    },
    {
      "slug": "avon-by-the-sea",
      "name": "Avon-by-the-Sea",
      "nwps_wfo": "phi",
      "nwps_grid": "CG1",
      "nwps_node_lat": 40.19457,
      "nwps_node_lng": -73.99138,
      "nwps_node_distance_m": 1457,
      "nwps_buoy_id": "44065"
    },
    {
      "slug": "belmar",
      "name": "Belmar",
      "nwps_wfo": "phi",
      "nwps_grid": "CG1",
      "nwps_node_lat": 40.17835,
      "nwps_node_lng": -73.99138,
      "nwps_node_distance_m": 1552,
      "nwps_buoy_id": "44065"
    },
    {
      "slug": "spring-lake",
      "name": "Spring Lake",
      "nwps_wfo": "phi",
      "nwps_grid": "CG1",
      "nwps_node_lat": 40.14592,
      "nwps_node_lng": -74.01207,
      "nwps_node_distance_m": 816,
      "nwps_buoy_id": "44065"
    },
    {
      "slug": "sea-girt",
      "name": "Sea Girt",
      "nwps_wfo": "phi",
      "nwps_grid": "CG1",
      "nwps_node_lat": 40.1297,
      "nwps_node_lng": -74.01207,
      "nwps_node_distance_m": 1247,
      "nwps_buoy_id": "44065"
    },
    {
      "slug": "manasquan-inlet",
      "name": "Manasquan Inlet",
      "nwps_wfo": "phi",
      "nwps_grid": "CG1",
      "nwps_node_lat": 40.11349,
      "nwps_node_lng": -74.03276,
      "nwps_node_distance_m": 1213,
      "nwps_buoy_id": "44065"
    },
    {
      "slug": "point-pleasant-beach",
      "name": "Point Pleasant Beach",
      "nwps_wfo": "phi",
      "nwps_grid": "CG1",
      "nwps_node_lat": 40.08106,
      "nwps_node_lng": -74.03276,
      "nwps_node_distance_m": 755,
      "nwps_buoy_id": "44091"
    },
    {
      "slug": "bay-head",
      "name": "Bay Head",
      "nwps_wfo": "phi",
      "nwps_grid": "CG1",
      "nwps_node_lat": 40.08106,
      "nwps_node_lng": -74.03276,
      "nwps_node_distance_m": 705,
      "nwps_buoy_id": "44091"
    },
    {
      "slug": "mantoloking",
      "name": "Mantoloking",
      "nwps_wfo": "phi",
      "nwps_grid": "CG1",
      "nwps_node_lat": 40.03241,
      "nwps_node_lng": -74.03276,
      "nwps_node_distance_m": 1535,
      "nwps_buoy_id": "44091"
    },
    {
      "slug": "seaside-heights",
      "name": "Seaside Heights",
      "nwps_wfo": "phi",
      "nwps_grid": "CG1",
      "nwps_node_lat": 39.95133,
      "nwps_node_lng": -74.05345,
      "nwps_node_distance_m": 1467,
      "nwps_buoy_id": "44091"
    },
    {
      "slug": "seaside-park",
      "name": "Seaside Park",
      "nwps_wfo": "phi",
      "nwps_grid": "CG1",
      "nwps_node_lat": 39.93511,
      "nwps_node_lng": -74.05345,
      "nwps_node_distance_m": 1441,
      "nwps_buoy_id": "44091"
    },
    {
      "slug": "island-beach-state-park",
      "name": "Island Beach State Park",
      "nwps_wfo": "phi",
      "nwps_grid": "CG1",
      "nwps_node_lat": 39.90268,
      "nwps_node_lng": -74.07414,
      "nwps_node_distance_m": 251,
      "nwps_buoy_id": "44091"
    },
    {
      "slug": "barnegat-light",
      "name": "Barnegat Light",
      "nwps_wfo": "phi",
      "nwps_grid": "CG1",
      "nwps_node_lat": 39.75674,
      "nwps_node_lng": -74.09483,
      "nwps_node_distance_m": 308,
      "nwps_buoy_id": "44091"
    },
    {
      "slug": "harvey-cedars",
      "name": "Harvey Cedars",
      "nwps_wfo": "phi",
      "nwps_grid": "CG1",
      "nwps_node_lat": 39.70809,
      "nwps_node_lng": -74.11552,
      "nwps_node_distance_m": 1487,
      "nwps_buoy_id": "44091"
    },
    {
      "slug": "surf-city-nj",
      "name": "Surf City NJ",
      "nwps_wfo": "phi",
      "nwps_grid": "CG1",
      "nwps_node_lat": 39.65944,
      "nwps_node_lng": -74.1569,
      "nwps_node_distance_m": 525,
      "nwps_buoy_id": "44091"
    },
    {
      "slug": "ship-bottom",
      "name": "Ship Bottom",
      "nwps_wfo": "phi",
      "nwps_grid": "CG1",
      "nwps_node_lat": 39.64322,
      "nwps_node_lng": -74.1569,
      "nwps_node_distance_m": 1345,
      "nwps_buoy_id": "44091"
    },
    {
      "slug": "long-beach-island",
      "name": "Long Beach Island",
      "nwps_wfo": "phi",
      "nwps_grid": "CG1",
      "nwps_node_lat": 39.62701,
      "nwps_node_lng": -74.17759,
      "nwps_node_distance_m": 925,
      "nwps_buoy_id": "44091"
    },
    {
      "slug": "long-beach-township",
      "name": "Long Beach Township",
      "nwps_wfo": "phi",
      "nwps_grid": "CG1",
      "nwps_node_lat": 39.61079,
      "nwps_node_lng": -74.19828,
      "nwps_node_distance_m": 618,
      "nwps_buoy_id": "44091"
    },
    {
      "slug": "beach-haven",
      "name": "Beach Haven",
      "nwps_wfo": "phi",
      "nwps_grid": "CG1",
      "nwps_node_lat": 39.56214,
      "nwps_node_lng": -74.21897,
      "nwps_node_distance_m": 1368,
      "nwps_buoy_id": "44091"
    },
    {
      "slug": "holyoke",
      "name": "Holyoke",
      "nwps_wfo": "phi",
      "nwps_grid": "CG1",
      "nwps_node_lat": 39.54593,
      "nwps_node_lng": -74.23966,
      "nwps_node_distance_m": 752,
      "nwps_buoy_id": "44091"
    },
    {
      "slug": "wooden-jetty",
      "name": "Wooden Jetty",
      "nwps_wfo": "phi",
      "nwps_grid": "CG1",
      "nwps_node_lat": 39.52971,
      "nwps_node_lng": -74.26034,
      "nwps_node_distance_m": 203,
      "nwps_buoy_id": "44091"
    },
    {
      "slug": "third-beach-newport",
      "name": "Third Beach Newport",
      "nwps_wfo": "box",
      "nwps_grid": "CG1",
      "nwps_node_lat": 41.49777,
      "nwps_node_lng": -71.22013,
      "nwps_node_distance_m": 2415,
      "nwps_buoy_id": "44097"
    },
    {
      "slug": "first-beach",
      "name": "First Beach",
      "nwps_wfo": "box",
      "nwps_grid": "CG1",
      "nwps_node_lat": 41.46164,
      "nwps_node_lng": -71.29123,
      "nwps_node_distance_m": 2825,
      "nwps_buoy_id": "44097"
    },
    {
      "slug": "second-beach-newport",
      "name": "Second Beach Newport",
      "nwps_wfo": "box",
      "nwps_grid": "CG1",
      "nwps_node_lat": 41.46164,
      "nwps_node_lng": -71.24383,
      "nwps_node_distance_m": 2829,
      "nwps_buoy_id": "44097"
    },
    {
      "slug": "ruggles",
      "name": "Ruggles",
      "nwps_wfo": "box",
      "nwps_grid": "CG1",
      "nwps_node_lat": 41.46164,
      "nwps_node_lng": -71.29123,
      "nwps_node_distance_m": 766,
      "nwps_buoy_id": "44097"
    },
    {
      "slug": "baileys-beach",
      "name": "Baileys Beach",
      "nwps_wfo": "box",
      "nwps_grid": "CG1",
      "nwps_node_lat": 41.44358,
      "nwps_node_lng": -71.31494,
      "nwps_node_distance_m": 1355,
      "nwps_buoy_id": "44097"
    },
    {
      "slug": "narrow-river",
      "name": "Narrow River",
      "nwps_wfo": "box",
      "nwps_grid": "CG1",
      "nwps_node_lat": 41.42551,
      "nwps_node_lng": -71.43344,
      "nwps_node_distance_m": 1796,
      "nwps_buoy_id": "44097"
    },
    {
      "slug": "narragansett-beach",
      "name": "Narragansett Beach",
      "nwps_wfo": "box",
      "nwps_grid": "CG1",
      "nwps_node_lat": 41.42551,
      "nwps_node_lng": -71.43344,
      "nwps_node_distance_m": 1950,
      "nwps_buoy_id": "44097"
    },
    {
      "slug": "monahans",
      "name": "Monahans",
      "nwps_wfo": "box",
      "nwps_grid": "CG1",
      "nwps_node_lat": 41.42551,
      "nwps_node_lng": -71.43344,
      "nwps_node_distance_m": 1868,
      "nwps_buoy_id": "44097"
    },
    {
      "slug": "scarborough",
      "name": "Scarborough",
      "nwps_wfo": "box",
      "nwps_grid": "CG1",
      "nwps_node_lat": 41.38938,
      "nwps_node_lng": -71.45714,
      "nwps_node_distance_m": 1495,
      "nwps_buoy_id": "44097"
    },
    {
      "slug": "east-matunuck-state-beach",
      "name": "East Matunuck State Beach",
      "nwps_wfo": "box",
      "nwps_grid": "CG1",
      "nwps_node_lat": 41.35325,
      "nwps_node_lng": -71.52825,
      "nwps_node_distance_m": 2590,
      "nwps_buoy_id": "44097"
    },
    {
      "slug": "salty-brine",
      "name": "Salty Brine",
      "nwps_wfo": "box",
      "nwps_grid": "CG1",
      "nwps_node_lat": 41.35325,
      "nwps_node_lng": -71.50455,
      "nwps_node_distance_m": 2496,
      "nwps_buoy_id": "44097"
    },
    {
      "slug": "marys",
      "name": "Marys",
      "nwps_wfo": "box",
      "nwps_grid": "CG1",
      "nwps_node_lat": 41.35325,
      "nwps_node_lng": -71.55195,
      "nwps_node_distance_m": 2348,
      "nwps_buoy_id": "44097"
    },
    {
      "slug": "matunuck",
      "name": "Matunuck",
      "nwps_wfo": "box",
      "nwps_grid": "CG1",
      "nwps_node_lat": 41.35325,
      "nwps_node_lng": -71.52825,
      "nwps_node_distance_m": 2294,
      "nwps_buoy_id": "44097"
    },
    {
      "slug": "deep-hole",
      "name": "Deep Hole",
      "nwps_wfo": "box",
      "nwps_grid": "CG1",
      "nwps_node_lat": 41.35325,
      "nwps_node_lng": -71.52825,
      "nwps_node_distance_m": 2258,
      "nwps_buoy_id": "44097"
    },
    {
      "slug": "moonstone-beach-ri",
      "name": "Moonstone Beach RI",
      "nwps_wfo": "box",
      "nwps_grid": "CG1",
      "nwps_node_lat": 41.35325,
      "nwps_node_lng": -71.57565,
      "nwps_node_distance_m": 2024,
      "nwps_buoy_id": "44097"
    },
    {
      "slug": "conant-ave",
      "name": "Conant Ave",
      "nwps_wfo": "box",
      "nwps_grid": "CG1",
      "nwps_node_lat": 41.35325,
      "nwps_node_lng": -71.48084,
      "nwps_node_distance_m": 1791,
      "nwps_buoy_id": "44097"
    },
    {
      "slug": "the-k-s",
      "name": "The K's",
      "nwps_wfo": "box",
      "nwps_grid": "CG1",
      "nwps_node_lat": 41.35325,
      "nwps_node_lng": -71.50455,
      "nwps_node_distance_m": 1853,
      "nwps_buoy_id": "44097"
    },
    {
      "slug": "pilgrim-ave",
      "name": "Pilgrim Ave",
      "nwps_wfo": "box",
      "nwps_grid": "CG1",
      "nwps_node_lat": 41.35325,
      "nwps_node_lng": -71.48084,
      "nwps_node_distance_m": 1391,
      "nwps_buoy_id": "44097"
    },
    {
      "slug": "point-judith",
      "name": "Point Judith",
      "nwps_wfo": "box",
      "nwps_grid": "CG1",
      "nwps_node_lat": 41.35325,
      "nwps_node_lng": -71.48084,
      "nwps_node_distance_m": 1035,
      "nwps_buoy_id": "44097"
    },
    {
      "slug": "point-judith-south",
      "name": "Point Judith South",
      "nwps_wfo": "box",
      "nwps_grid": "CG1",
      "nwps_node_lat": 41.35325,
      "nwps_node_lng": -71.48084,
      "nwps_node_distance_m": 802,
      "nwps_buoy_id": "44097"
    },
    {
      "slug": "charlestown-town-beach",
      "name": "Charlestown Town Beach",
      "nwps_wfo": "box",
      "nwps_grid": "CG1",
      "nwps_node_lat": 41.35325,
      "nwps_node_lng": -71.62305,
      "nwps_node_distance_m": 1040,
      "nwps_buoy_id": "44097"
    },
    {
      "slug": "breachway",
      "name": "Breachway",
      "nwps_wfo": "box",
      "nwps_grid": "CG1",
      "nwps_node_lat": 41.35325,
      "nwps_node_lng": -71.62305,
      "nwps_node_distance_m": 1354,
      "nwps_buoy_id": "44097"
    },
    {
      "slug": "east-beach",
      "name": "East Beach",
      "nwps_wfo": "box",
      "nwps_grid": "CG1",
      "nwps_node_lat": 41.33519,
      "nwps_node_lng": -71.64675,
      "nwps_node_distance_m": 2055,
      "nwps_buoy_id": "44097"
    },
    {
      "slug": "dunes-park",
      "name": "Dunes Park",
      "nwps_wfo": "box",
      "nwps_grid": "CG1",
      "nwps_node_lat": 41.31712,
      "nwps_node_lng": -71.76526,
      "nwps_node_distance_m": 1291,
      "nwps_buoy_id": "44097"
    },
    {
      "slug": "weekapaug",
      "name": "Weekapaug",
      "nwps_wfo": "box",
      "nwps_grid": "CG1",
      "nwps_node_lat": 41.31712,
      "nwps_node_lng": -71.76526,
      "nwps_node_distance_m": 1301,
      "nwps_buoy_id": "44097"
    },
    {
      "slug": "misquamicut-state-beach",
      "name": "Misquamicut State Beach",
      "nwps_wfo": "box",
      "nwps_grid": "CG1",
      "nwps_node_lat": 41.31712,
      "nwps_node_lng": -71.78896,
      "nwps_node_distance_m": 876,
      "nwps_buoy_id": "44097"
    },
    {
      "slug": "black-rock-point",
      "name": "Black Rock Point",
      "nwps_wfo": "box",
      "nwps_grid": "CG1",
      "nwps_node_lat": 41.13647,
      "nwps_node_lng": -71.57565,
      "nwps_node_distance_m": 1789,
      "nwps_buoy_id": "44097"
    },
    {
      "slug": "salisbury",
      "name": "Salisbury",
      "nwps_wfo": "box",
      "nwps_grid": "CG1",
      "nwps_node_lat": 42.83458,
      "nwps_node_lng": -70.79351,
      "nwps_node_distance_m": 1946,
      "nwps_buoy_id": "44098"
    },
    {
      "slug": "plum-island",
      "name": "Plum Island",
      "nwps_wfo": "box",
      "nwps_grid": "CG1",
      "nwps_node_lat": 42.79845,
      "nwps_node_lng": -70.79351,
      "nwps_node_distance_m": 1128,
      "nwps_buoy_id": "44098"
    },
    {
      "slug": "good-harbor-beach",
      "name": "Good Harbor Beach",
      "nwps_wfo": "box",
      "nwps_grid": "CG1",
      "nwps_node_lat": 42.6178,
      "nwps_node_lng": -70.6276,
      "nwps_node_distance_m": 222,
      "nwps_buoy_id": "44098"
    },
    {
      "slug": "pirates-cove",
      "name": "Pirates Cove",
      "nwps_wfo": "gyx",
      "nwps_grid": "CG1",
      "nwps_node_lat": 43.03137,
      "nwps_node_lng": -70.71406,
      "nwps_node_distance_m": 1552,
      "nwps_buoy_id": "44098"
    },
    {
      "slug": "straws-point",
      "name": "Straws Point",
      "nwps_wfo": "gyx",
      "nwps_grid": "CG1",
      "nwps_node_lat": 42.98627,
      "nwps_node_lng": -70.74453,
      "nwps_node_distance_m": 676,
      "nwps_buoy_id": "44098"
    },
    {
      "slug": "jenness-beach",
      "name": "Jenness Beach",
      "nwps_wfo": "gyx",
      "nwps_grid": "CG1",
      "nwps_node_lat": 42.98627,
      "nwps_node_lng": -70.74453,
      "nwps_node_distance_m": 1284,
      "nwps_buoy_id": "44098"
    },
    {
      "slug": "north-beach-rye",
      "name": "North Beach Rye",
      "nwps_wfo": "gyx",
      "nwps_grid": "CG1",
      "nwps_node_lat": 42.98627,
      "nwps_node_lng": -70.74453,
      "nwps_node_distance_m": 1838,
      "nwps_buoy_id": "44098"
    },
    {
      "slug": "fox-hill",
      "name": "Fox Hill",
      "nwps_wfo": "gyx",
      "nwps_grid": "CG1",
      "nwps_node_lat": 42.96372,
      "nwps_node_lng": -70.74453,
      "nwps_node_distance_m": 1882,
      "nwps_buoy_id": "44098"
    },
    {
      "slug": "costellos",
      "name": "Costellos",
      "nwps_wfo": "gyx",
      "nwps_grid": "CG1",
      "nwps_node_lat": 42.94118,
      "nwps_node_lng": -70.775,
      "nwps_node_distance_m": 1748,
      "nwps_buoy_id": "44098"
    },
    {
      "slug": "the-wall-hampton",
      "name": "The Wall Hampton",
      "nwps_wfo": "gyx",
      "nwps_grid": "CG1",
      "nwps_node_lat": 42.91863,
      "nwps_node_lng": -70.775,
      "nwps_node_distance_m": 2069,
      "nwps_buoy_id": "44098"
    },
    {
      "slug": "hampton-beach",
      "name": "Hampton Beach",
      "nwps_wfo": "gyx",
      "nwps_grid": "CG1",
      "nwps_node_lat": 42.89608,
      "nwps_node_lng": -70.80547,
      "nwps_node_distance_m": 1191,
      "nwps_buoy_id": "44098"
    },
    {
      "slug": "harbor-beach",
      "name": "Harbor Beach",
      "nwps_wfo": "gyx",
      "nwps_grid": "CG1",
      "nwps_node_lat": 43.12157,
      "nwps_node_lng": -70.62266,
      "nwps_node_distance_m": 1695,
      "nwps_buoy_id": "44098"
    },
    {
      "slug": "long-sands-beach",
      "name": "Long Sands Beach",
      "nwps_wfo": "gyx",
      "nwps_grid": "CG1",
      "nwps_node_lat": 43.14412,
      "nwps_node_lng": -70.62266,
      "nwps_node_distance_m": 2195,
      "nwps_buoy_id": "44098"
    },
    {
      "slug": "ogunquit",
      "name": "Ogunquit",
      "nwps_wfo": "gyx",
      "nwps_grid": "CG1",
      "nwps_node_lat": 43.25686,
      "nwps_node_lng": -70.56172,
      "nwps_node_distance_m": 2338,
      "nwps_buoy_id": "44098"
    }
  ],
  "held": [],
  "trust_by_buoy": {
    "44025": "PASS",
    "44065": "PASS",
    "44099": "PASS",
    "44091": "PASS",
    "44097": "PASS",
    "44098": "PASS"
  },
  "trust_buoy": "44025+44065",
  "trust_note": "44025 PASS r=0.896 circ_std=11.2 pairs=38; OKX south-shore only. radars+turtle-cove re-added (OFFWIN was a per-cycle verdict, not a placement fail). | NJ/phi (8) added: 44065 PASS r=0.865 circ_std=16.6 pairs=43. | trust_by_buoy is the HEIGHT gate (controls tagging); DIRECTION trust-reference is governed by direction_reference below. box/44098 (3) + gyx/44098 (11): DIRECTION pairing RETIRED — 44098 structurally invalid (76 m offshore bank vs shallow nearshore node), no valid nearshore directional buoy within 150 km (GoM shelf deep to the coast); height stays NWPS, direction from raycast.",
  "direction_reference": {
    "_comment": "DIRECTION trust-reference disposition, SEPARATE from trust_by_buoy (the HEIGHT gate apply_nwps_assignments reads to decide tagging). A zone under 'retired' KEEPS its NWPS height (its buoy stays PASS in trust_by_buoy) and its raycast swell-window geometry; it simply has NO NWPS swell-DIRECTION trust-tag because no valid nearshore directional buoy exists to earn one. This block is inert to apply_nwps_assignments (which reads only trust_by_buoy + spots), so recording a retirement here changes NO tagging.",
    "retired": [
      {
        "zone": "box/44098",
        "wfo": "box",
        "buoy": "44098",
        "spots": 3,
        "direction_tier": "height+raycast",
        "reason": "44098 STRUCTURALLY INVALID — 76 m offshore bank vs shallow nearshore node; no valid nearshore directional buoy within 150 km (Gulf of Maine shelf is deep to the coast — a permanent geographic fact, not a transient outage). Height stays NWPS (r≈0.87); direction from raycast.",
        "verified": "--find-buoy live on the Mac: 33 candidates within 150 km of 44098, none a valid nearshore directional reference (least-bad 44007 Portland 49 m 3-m discus — MARGINAL, not used)."
      },
      {
        "zone": "gyx/44098",
        "wfo": "gyx",
        "buoy": "44098",
        "spots": 11,
        "direction_tier": "height+raycast",
        "reason": "44098 STRUCTURALLY INVALID — 76 m offshore bank vs shallow nearshore node; no valid nearshore directional buoy within 150 km (Gulf of Maine shelf is deep to the coast — a permanent geographic fact, not a transient outage). Height stays NWPS (r≈0.87); direction from raycast.",
        "verified": "--find-buoy live on the Mac: 33 candidates within 150 km of 44098, none a valid nearshore directional reference (least-bad 44007 Portland 49 m 3-m discus — MARGINAL, not used)."
      }
    ]
  }
}