{
  "_comment": "OKX go-live artifact. Regenerated after --validate overwrote it. OKX=tagged (44025 PASS); phi=held for 44065. Do not let --validate clobber.",
  "spots": [
    {
      "slug": "breezy-point",
      "name": "Breezy Point",
      "nwps_wfo": "okx",
      "nwps_grid": "CG1",
      "nwps_node_lat": 40.53418,
      "nwps_node_lng": -73.94317,
      "nwps_node_distance_m": 995,
      "nwps_buoy_id": "44025"
    },
    {
      "slug": "rockaway-90th-street",
      "name": "Rockaway 90th Street",
      "nwps_wfo": "okx",
      "nwps_grid": "CG1",
      "nwps_node_lat": 40.56685,
      "nwps_node_lng": -73.81646,
      "nwps_node_distance_m": 1528,
      "nwps_buoy_id": "44025"
    },
    {
      "slug": "long-beach-ny",
      "name": "Long Beach NY",
      "nwps_wfo": "okx",
      "nwps_grid": "CG1",
      "nwps_node_lat": 40.56685,
      "nwps_node_lng": -73.66863,
      "nwps_node_distance_m": 1682,
      "nwps_buoy_id": "44025"
    },
    {
      "slug": "rockaway-beach",
      "name": "Rockaway Beach",
      "nwps_wfo": "okx",
      "nwps_grid": "CG1",
      "nwps_node_lat": 40.58319,
      "nwps_node_lng": -73.79534,
      "nwps_node_distance_m": 975,
      "nwps_buoy_id": "44025"
    },
    {
      "slug": "lido-beach",
      "name": "Lido Beach",
      "nwps_wfo": "okx",
      "nwps_grid": "CG1",
      "nwps_node_lat": 40.58319,
      "nwps_node_lng": -73.60528,
      "nwps_node_distance_m": 137,
      "nwps_buoy_id": "44025"
    },
    {
      "slug": "west-end-long-beach",
      "name": "West End Long Beach",
      "nwps_wfo": "okx",
      "nwps_grid": "CG1",
      "nwps_node_lat": 40.58319,
      "nwps_node_lng": -73.73199,
      "nwps_node_distance_m": 602,
      "nwps_buoy_id": "44025"
    },
    {
      "slug": "point-lookout",
      "name": "Point Lookout",
      "nwps_wfo": "okx",
      "nwps_grid": "CG1",
      "nwps_node_lat": 40.58319,
      "nwps_node_lng": -73.58416,
      "nwps_node_distance_m": 392,
      "nwps_buoy_id": "44025"
    },
    {
      "slug": "rockaway-67th-street",
      "name": "Rockaway 67th Street",
      "nwps_wfo": "okx",
      "nwps_grid": "CG1",
      "nwps_node_lat": 40.58319,
      "nwps_node_lng": -73.79534,
      "nwps_node_distance_m": 271,
      "nwps_buoy_id": "44025"
    },
    {
      "slug": "jones-beach",
      "name": "Jones Beach",
      "nwps_wfo": "okx",
      "nwps_grid": "CG1",
      "nwps_node_lat": 40.58319,
      "nwps_node_lng": -73.52081,
      "nwps_node_distance_m": 628,
      "nwps_buoy_id": "44025"
    },
    {
      "slug": "gilgo-beach",
      "name": "Gilgo Beach",
      "nwps_wfo": "okx",
      "nwps_grid": "CG1",
      "nwps_node_lat": 40.61586,
      "nwps_node_lng": -73.37298,
      "nwps_node_distance_m": 1883,
      "nwps_buoy_id": "44025"
    },
    {
      "slug": "robert-moses-state-park",
      "name": "Robert Moses State Park",
      "nwps_wfo": "okx",
      "nwps_grid": "CG1",
      "nwps_node_lat": 40.61586,
      "nwps_node_lng": -73.28851,
      "nwps_node_distance_m": 881,
      "nwps_buoy_id": "44025"
    },
    {
      "slug": "fire-island",
      "name": "Fire Island",
      "nwps_wfo": "okx",
      "nwps_grid": "CG1",
      "nwps_node_lat": 40.61586,
      "nwps_node_lng": -73.24627,
      "nwps_node_distance_m": 1061,
      "nwps_buoy_id": "44025"
    },
    {
      "slug": "saltaire",
      "name": "Saltaire",
      "nwps_wfo": "okx",
      "nwps_grid": "CG1",
      "nwps_node_lat": 40.6322,
      "nwps_node_lng": -73.18292,
      "nwps_node_distance_m": 630,
      "nwps_buoy_id": "44025"
    },
    {
      "slug": "ocean-bay-park",
      "name": "Ocean Bay Park",
      "nwps_wfo": "okx",
      "nwps_grid": "CG1",
      "nwps_node_lat": 40.6322,
      "nwps_node_lng": -73.14068,
      "nwps_node_distance_m": 1582,
      "nwps_buoy_id": "44025"
    },
    {
      "slug": "davis-park",
      "name": "Davis Park",
      "nwps_wfo": "okx",
      "nwps_grid": "CG1",
      "nwps_node_lat": 40.68121,
      "nwps_node_lng": -72.99286,
      "nwps_node_distance_m": 867,
      "nwps_buoy_id": "44025"
    },
    {
      "slug": "smith-point-beach",
      "name": "Smith Point Beach",
      "nwps_wfo": "okx",
      "nwps_grid": "CG1",
      "nwps_node_lat": 40.73022,
      "nwps_node_lng": -72.84503,
      "nwps_node_distance_m": 1638,
      "nwps_buoy_id": "44025"
    },
    {
      "slug": "cupsogue-beach",
      "name": "Cupsogue Beach",
      "nwps_wfo": "okx",
      "nwps_grid": "CG1",
      "nwps_node_lat": 40.76289,
      "nwps_node_lng": -72.73944,
      "nwps_node_distance_m": 756,
      "nwps_buoy_id": "44025"
    },
    {
      "slug": "ponquogue-beach",
      "name": "Ponquogue Beach",
      "nwps_wfo": "okx",
      "nwps_grid": "CG1",
      "nwps_node_lat": 40.82824,
      "nwps_node_lng": -72.48602,
      "nwps_node_distance_m": 1132,
      "nwps_buoy_id": "44025"
    },
    {
      "slug": "shinnecock-inlet",
      "name": "Shinnecock Inlet",
      "nwps_wfo": "okx",
      "nwps_grid": "CG1",
      "nwps_node_lat": 40.82824,
      "nwps_node_lng": -72.48602,
      "nwps_node_distance_m": 1383,
      "nwps_buoy_id": "44025"
    },
    {
      "slug": "flying-point-beach",
      "name": "Flying Point Beach",
      "nwps_wfo": "okx",
      "nwps_grid": "CG1",
      "nwps_node_lat": 40.86092,
      "nwps_node_lng": -72.38043,
      "nwps_node_distance_m": 1050,
      "nwps_buoy_id": "44025"
    },
    {
      "slug": "mecox-beach",
      "name": "Mecox Beach",
      "nwps_wfo": "okx",
      "nwps_grid": "CG1",
      "nwps_node_lat": 40.87725,
      "nwps_node_lng": -72.31708,
      "nwps_node_distance_m": 1785,
      "nwps_buoy_id": "44025"
    },
    {
      "slug": "georgica-beach",
      "name": "Georgica Beach",
      "nwps_wfo": "okx",
      "nwps_grid": "CG1",
      "nwps_node_lat": 40.92626,
      "nwps_node_lng": -72.21149,
      "nwps_node_distance_m": 944,
      "nwps_buoy_id": "44025"
    },
    {
      "slug": "main-beach-east-hampton",
      "name": "Main Beach East Hampton",
      "nwps_wfo": "okx",
      "nwps_grid": "CG1",
      "nwps_node_lat": 40.9426,
      "nwps_node_lng": -72.16925,
      "nwps_node_distance_m": 806,
      "nwps_buoy_id": "44025"
    },
    {
      "slug": "hither-hills",
      "name": "Hither Hills",
      "nwps_wfo": "okx",
      "nwps_grid": "CG1",
      "nwps_node_lat": 40.99161,
      "nwps_node_lng": -72.02143,
      "nwps_node_distance_m": 1109,
      "nwps_buoy_id": "44025"
    },
    {
      "slug": "terrace",
      "name": "Terrace",
      "nwps_wfo": "okx",
      "nwps_grid": "CG1",
      "nwps_node_lat": 41.02429,
      "nwps_node_lng": -71.93696,
      "nwps_node_distance_m": 982,
      "nwps_buoy_id": "44025"
    },
    {
      "slug": "poles",
      "name": "Poles",
      "nwps_wfo": "okx",
      "nwps_grid": "CG1",
      "nwps_node_lat": 41.02429,
      "nwps_node_lng": -71.91584,
      "nwps_node_distance_m": 1580,
      "nwps_buoy_id": "44025"
    },
    {
      "slug": "ditch-plains",
      "name": "Ditch Plains",
      "nwps_wfo": "okx",
      "nwps_grid": "CG1",
      "nwps_node_lat": 41.02429,
      "nwps_node_lng": -71.91584,
      "nwps_node_distance_m": 1604,
      "nwps_buoy_id": "44025"
    },
    {
      "slug": "montauk-point",
      "name": "Montauk Point",
      "nwps_wfo": "okx",
      "nwps_grid": "CG1",
      "nwps_node_lat": 41.0733,
      "nwps_node_lng": -71.85248,
      "nwps_node_distance_m": 338,
      "nwps_buoy_id": "44025"
    },
    {
      "slug": "radars",
      "name": "Radars",
      "nwps_wfo": "okx",
      "nwps_grid": "CG1",
      "nwps_node_lat": 41.05699,
      "nwps_node_lng": -71.85254,
      "nwps_node_distance_m": 1264,
      "nwps_buoy_id": "44025"
    },
    {
      "slug": "turtle-cove-montauk",
      "name": "Turtle Cove Montauk",
      "nwps_wfo": "okx",
      "nwps_grid": "CG1",
      "nwps_node_lat": 41.05699,
      "nwps_node_lng": -71.85254,
      "nwps_node_distance_m": 1137,
      "nwps_buoy_id": "44025"
    },
    {
      "slug": "ocean-grove",
      "name": "Ocean Grove",
      "nwps_wfo": "phi",
      "nwps_grid": "CG1",
      "nwps_node_lat": 40.20744,
      "nwps_node_lng": -73.9854,
      "nwps_node_distance_m": 1466,
      "nwps_buoy_id": "44065"
    },
    {
      "slug": "asbury-park",
      "name": "Asbury Park",
      "nwps_wfo": "phi",
      "nwps_grid": "CG1",
      "nwps_node_lat": 40.22377,
      "nwps_node_lng": -73.9854,
      "nwps_node_distance_m": 1329,
      "nwps_buoy_id": "44065"
    },
    {
      "slug": "deal",
      "name": "Deal",
      "nwps_wfo": "phi",
      "nwps_grid": "CG1",
      "nwps_node_lat": 40.22377,
      "nwps_node_lng": -73.9854,
      "nwps_node_distance_m": 892,
      "nwps_buoy_id": "44065"
    },
    {
      "slug": "long-branch",
      "name": "Long Branch",
      "nwps_wfo": "phi",
      "nwps_grid": "CG1",
      "nwps_node_lat": 40.30546,
      "nwps_node_lng": -73.96429,
      "nwps_node_distance_m": 1123,
      "nwps_buoy_id": "44065"
    },
    {
      "slug": "pier-village",
      "name": "Pier Village",
      "nwps_wfo": "phi",
      "nwps_grid": "CG1",
      "nwps_node_lat": 40.30546,
      "nwps_node_lng": -73.96429,
      "nwps_node_distance_m": 1074,
      "nwps_buoy_id": "44065"
    },
    {
      "slug": "monmouth",
      "name": "Monmouth",
      "nwps_wfo": "phi",
      "nwps_grid": "CG1",
      "nwps_node_lat": 40.33813,
      "nwps_node_lng": -73.96429,
      "nwps_node_distance_m": 702,
      "nwps_buoy_id": "44065"
    },
    {
      "slug": "sea-bright",
      "name": "Sea Bright",
      "nwps_wfo": "phi",
      "nwps_grid": "CG1",
      "nwps_node_lat": 40.35447,
      "nwps_node_lng": -73.96429,
      "nwps_node_distance_m": 911,
      "nwps_buoy_id": "44065"
    },
    {
      "slug": "sandy-hook",
      "name": "Sandy Hook",
      "nwps_wfo": "phi",
      "nwps_grid": "CG1",
      "nwps_node_lat": 40.45249,
      "nwps_node_lng": -73.96429,
      "nwps_node_distance_m": 1584,
      "nwps_buoy_id": "44065"
    },
    {
      "slug": "north-end-virginia-beach",
      "name": "North End Virginia Beach",
      "nwps_wfo": "akq",
      "nwps_grid": "CG1",
      "nwps_node_lat": 36.9035,
      "nwps_node_lng": -75.97566,
      "nwps_node_distance_m": 1122,
      "nwps_buoy_id": "44099"
    },
    {
      "slug": "virginia-beach-oceanfront",
      "name": "Virginia Beach Oceanfront",
      "nwps_wfo": "akq",
      "nwps_grid": "CG1",
      "nwps_node_lat": 36.83859,
      "nwps_node_lng": -75.95559,
      "nwps_node_distance_m": 1439,
      "nwps_buoy_id": "44099"
    },
    {
      "slug": "first-street-jetty-vb",
      "name": "First Street Jetty VB",
      "nwps_wfo": "akq",
      "nwps_grid": "CG1",
      "nwps_node_lat": 36.83859,
      "nwps_node_lng": -75.95559,
      "nwps_node_distance_m": 1376,
      "nwps_buoy_id": "44099"
    },
    {
      "slug": "croatan-beach",
      "name": "Croatan Beach",
      "nwps_wfo": "akq",
      "nwps_grid": "CG1",
      "nwps_node_lat": 36.82236,
      "nwps_node_lng": -75.95559,
      "nwps_node_distance_m": 1040,
      "nwps_buoy_id": "44099"
    },
    {
      "slug": "sandbridge-beach",
      "name": "Sandbridge Beach",
      "nwps_wfo": "akq",
      "nwps_grid": "CG1",
      "nwps_node_lat": 36.74122,
      "nwps_node_lng": -75.93553,
      "nwps_node_distance_m": 866,
      "nwps_buoy_id": "44099"
    },
    {
      "slug": "bradley-beach",
      "name": "Bradley Beach",
      "nwps_wfo": "phi",
      "nwps_grid": "CG1",
      "nwps_node_lat": 40.19457,
      "nwps_node_lng": -73.99138,
      "nwps_node_distance_m": 1301,
      "nwps_buoy_id": "44065"
    },
    {
      "slug": "avon-by-the-sea",
      "name": "Avon-by-the-Sea",
      "nwps_wfo": "phi",
      "nwps_grid": "CG1",
      "nwps_node_lat": 40.19457,
      "nwps_node_lng": -73.99138,
      "nwps_node_distance_m": 1457,
      "nwps_buoy_id": "44065"
    },
    {
      "slug": "belmar",
      "name": "Belmar",
      "nwps_wfo": "phi",
      "nwps_grid": "CG1",
      "nwps_node_lat": 40.17835,
      "nwps_node_lng": -73.99138,
      "nwps_node_distance_m": 1552,
      "nwps_buoy_id": "44065"
    },
    {
      "slug": "spring-lake",
      "name": "Spring Lake",
      "nwps_wfo": "phi",
      "nwps_grid": "CG1",
      "nwps_node_lat": 40.14592,
      "nwps_node_lng": -74.01207,
      "nwps_node_distance_m": 816,
      "nwps_buoy_id": "44065"
    },
    {
      "slug": "sea-girt",
      "name": "Sea Girt",
      "nwps_wfo": "phi",
      "nwps_grid": "CG1",
      "nwps_node_lat": 40.1297,
      "nwps_node_lng": -74.01207,
      "nwps_node_distance_m": 1247,
      "nwps_buoy_id": "44065"
    },
    {
      "slug": "manasquan-inlet",
      "name": "Manasquan Inlet",
      "nwps_wfo": "phi",
      "nwps_grid": "CG1",
      "nwps_node_lat": 40.11349,
      "nwps_node_lng": -74.03276,
      "nwps_node_distance_m": 1213,
      "nwps_buoy_id": "44065"
    },
    {
      "slug": "point-pleasant-beach",
      "name": "Point Pleasant Beach",
      "nwps_wfo": "phi",
      "nwps_grid": "CG1",
      "nwps_node_lat": 40.08106,
      "nwps_node_lng": -74.03276,
      "nwps_node_distance_m": 755,
      "nwps_buoy_id": "44091"
    },
    {
      "slug": "bay-head",
      "name": "Bay Head",
      "nwps_wfo": "phi",
      "nwps_grid": "CG1",
      "nwps_node_lat": 40.08106,
      "nwps_node_lng": -74.03276,
      "nwps_node_distance_m": 705,
      "nwps_buoy_id": "44091"
    },
    {
      "slug": "mantoloking",
      "name": "Mantoloking",
      "nwps_wfo": "phi",
      "nwps_grid": "CG1",
      "nwps_node_lat": 40.03241,
      "nwps_node_lng": -74.03276,
      "nwps_node_distance_m": 1535,
      "nwps_buoy_id": "44091"
    },
    {
      "slug": "seaside-heights",
      "name": "Seaside Heights",
      "nwps_wfo": "phi",
      "nwps_grid": "CG1",
      "nwps_node_lat": 39.95133,
      "nwps_node_lng": -74.05345,
      "nwps_node_distance_m": 1467,
      "nwps_buoy_id": "44091"
    },
    {
      "slug": "seaside-park",
      "name": "Seaside Park",
      "nwps_wfo": "phi",
      "nwps_grid": "CG1",
      "nwps_node_lat": 39.93511,
      "nwps_node_lng": -74.05345,
      "nwps_node_distance_m": 1441,
      "nwps_buoy_id": "44091"
    },
    {
      "slug": "island-beach-state-park",
      "name": "Island Beach State Park",
      "nwps_wfo": "phi",
      "nwps_grid": "CG1",
      "nwps_node_lat": 39.90268,
      "nwps_node_lng": -74.07414,
      "nwps_node_distance_m": 251,
      "nwps_buoy_id": "44091"
    },
    {
      "slug": "barnegat-light",
      "name": "Barnegat Light",
      "nwps_wfo": "phi",
      "nwps_grid": "CG1",
      "nwps_node_lat": 39.75674,
      "nwps_node_lng": -74.09483,
      "nwps_node_distance_m": 308,
      "nwps_buoy_id": "44091"
    },
    {
      "slug": "harvey-cedars",
      "name": "Harvey Cedars",
      "nwps_wfo": "phi",
      "nwps_grid": "CG1",
      "nwps_node_lat": 39.70809,
      "nwps_node_lng": -74.11552,
      "nwps_node_distance_m": 1487,
      "nwps_buoy_id": "44091"
    },
    {
      "slug": "surf-city-nj",
      "name": "Surf City NJ",
      "nwps_wfo": "phi",
      "nwps_grid": "CG1",
      "nwps_node_lat": 39.65944,
      "nwps_node_lng": -74.1569,
      "nwps_node_distance_m": 525,
      "nwps_buoy_id": "44091"
    },
    {
      "slug": "ship-bottom",
      "name": "Ship Bottom",
      "nwps_wfo": "phi",
      "nwps_grid": "CG1",
      "nwps_node_lat": 39.64322,
      "nwps_node_lng": -74.1569,
      "nwps_node_distance_m": 1345,
      "nwps_buoy_id": "44091"
    },
    {
      "slug": "long-beach-island",
      "name": "Long Beach Island",
      "nwps_wfo": "phi",
      "nwps_grid": "CG1",
      "nwps_node_lat": 39.62701,
      "nwps_node_lng": -74.17759,
      "nwps_node_distance_m": 925,
      "nwps_buoy_id": "44091"
    },
    {
      "slug": "long-beach-township",
      "name": "Long Beach Township",
      "nwps_wfo": "phi",
      "nwps_grid": "CG1",
      "nwps_node_lat": 39.61079,
      "nwps_node_lng": -74.19828,
      "nwps_node_distance_m": 618,
      "nwps_buoy_id": "44091"
    },
    {
      "slug": "beach-haven",
      "name": "Beach Haven",
      "nwps_wfo": "phi",
      "nwps_grid": "CG1",
      "nwps_node_lat": 39.56214,
      "nwps_node_lng": -74.21897,
      "nwps_node_distance_m": 1368,
      "nwps_buoy_id": "44091"
    },
    {
      "slug": "holyoke",
      "name": "Holyoke",
      "nwps_wfo": "phi",
      "nwps_grid": "CG1",
      "nwps_node_lat": 39.54593,
      "nwps_node_lng": -74.23966,
      "nwps_node_distance_m": 752,
      "nwps_buoy_id": "44091"
    },
    {
      "slug": "wooden-jetty",
      "name": "Wooden Jetty",
      "nwps_wfo": "phi",
      "nwps_grid": "CG1",
      "nwps_node_lat": 39.52971,
      "nwps_node_lng": -74.26034,
      "nwps_node_distance_m": 203,
      "nwps_buoy_id": "44091"
    }
  ],
  "held": [],
  "trust_by_buoy": {
    "44025": "PASS",
    "44065": "PASS",
    "44099": "PASS",
    "44091": "PASS"
  },
  "trust_buoy": "44025+44065",
  "trust_note": "44025 PASS r=0.896 circ_std=11.2 pairs=38; OKX south-shore only. radars+turtle-cove re-added (OFFWIN was a per-cycle verdict, not a placement fail). | NJ/phi (8) added: 44065 PASS r=0.865 circ_std=16.6 pairs=43."
}