{
  "_comment": "OKX go-live artifact. Regenerated after --validate overwrote it. OKX=tagged (44025 PASS); phi=held for 44065. Do not let --validate clobber.",
  "spots": [
    {
      "slug": "breezy-point",
      "name": "Breezy Point",
      "nwps_wfo": "okx",
      "nwps_grid": "CG1",
      "nwps_node_lat": 40.53418,
      "nwps_node_lng": -73.94317,
      "nwps_node_distance_m": 995,
      "nwps_buoy_id": "44025"
    },
    {
      "slug": "rockaway-90th-street",
      "name": "Rockaway 90th Street",
      "nwps_wfo": "okx",
      "nwps_grid": "CG1",
      "nwps_node_lat": 40.56685,
      "nwps_node_lng": -73.81646,
      "nwps_node_distance_m": 1528,
      "nwps_buoy_id": "44025"
    },
    {
      "slug": "long-beach-ny",
      "name": "Long Beach NY",
      "nwps_wfo": "okx",
      "nwps_grid": "CG1",
      "nwps_node_lat": 40.56685,
      "nwps_node_lng": -73.66863,
      "nwps_node_distance_m": 1682,
      "nwps_buoy_id": "44025"
    },
    {
      "slug": "rockaway-beach",
      "name": "Rockaway Beach",
      "nwps_wfo": "okx",
      "nwps_grid": "CG1",
      "nwps_node_lat": 40.58319,
      "nwps_node_lng": -73.79534,
      "nwps_node_distance_m": 975,
      "nwps_buoy_id": "44025"
    },
    {
      "slug": "lido-beach",
      "name": "Lido Beach",
      "nwps_wfo": "okx",
      "nwps_grid": "CG1",
      "nwps_node_lat": 40.58319,
      "nwps_node_lng": -73.60528,
      "nwps_node_distance_m": 137,
      "nwps_buoy_id": "44025"
    },
    {
      "slug": "west-end-long-beach",
      "name": "West End Long Beach",
      "nwps_wfo": "okx",
      "nwps_grid": "CG1",
      "nwps_node_lat": 40.58319,
      "nwps_node_lng": -73.73199,
      "nwps_node_distance_m": 602,
      "nwps_buoy_id": "44025"
    },
    {
      "slug": "point-lookout",
      "name": "Point Lookout",
      "nwps_wfo": "okx",
      "nwps_grid": "CG1",
      "nwps_node_lat": 40.58319,
      "nwps_node_lng": -73.58416,
      "nwps_node_distance_m": 392,
      "nwps_buoy_id": "44025"
    },
    {
      "slug": "rockaway-67th-street",
      "name": "Rockaway 67th Street",
      "nwps_wfo": "okx",
      "nwps_grid": "CG1",
      "nwps_node_lat": 40.58319,
      "nwps_node_lng": -73.79534,
      "nwps_node_distance_m": 271,
      "nwps_buoy_id": "44025"
    },
    {
      "slug": "jones-beach",
      "name": "Jones Beach",
      "nwps_wfo": "okx",
      "nwps_grid": "CG1",
      "nwps_node_lat": 40.58319,
      "nwps_node_lng": -73.52081,
      "nwps_node_distance_m": 628,
      "nwps_buoy_id": "44025"
    },
    {
      "slug": "gilgo-beach",
      "name": "Gilgo Beach",
      "nwps_wfo": "okx",
      "nwps_grid": "CG1",
      "nwps_node_lat": 40.61586,
      "nwps_node_lng": -73.37298,
      "nwps_node_distance_m": 1883,
      "nwps_buoy_id": "44025"
    },
    {
      "slug": "robert-moses-state-park",
      "name": "Robert Moses State Park",
      "nwps_wfo": "okx",
      "nwps_grid": "CG1",
      "nwps_node_lat": 40.61586,
      "nwps_node_lng": -73.28851,
      "nwps_node_distance_m": 881,
      "nwps_buoy_id": "44025"
    },
    {
      "slug": "fire-island",
      "name": "Fire Island",
      "nwps_wfo": "okx",
      "nwps_grid": "CG1",
      "nwps_node_lat": 40.61586,
      "nwps_node_lng": -73.24627,
      "nwps_node_distance_m": 1061,
      "nwps_buoy_id": "44025"
    },
    {
      "slug": "saltaire",
      "name": "Saltaire",
      "nwps_wfo": "okx",
      "nwps_grid": "CG1",
      "nwps_node_lat": 40.6322,
      "nwps_node_lng": -73.18292,
      "nwps_node_distance_m": 630,
      "nwps_buoy_id": "44025"
    },
    {
      "slug": "ocean-bay-park",
      "name": "Ocean Bay Park",
      "nwps_wfo": "okx",
      "nwps_grid": "CG1",
      "nwps_node_lat": 40.6322,
      "nwps_node_lng": -73.14068,
      "nwps_node_distance_m": 1582,
      "nwps_buoy_id": "44025"
    },
    {
      "slug": "davis-park",
      "name": "Davis Park",
      "nwps_wfo": "okx",
      "nwps_grid": "CG1",
      "nwps_node_lat": 40.68121,
      "nwps_node_lng": -72.99286,
      "nwps_node_distance_m": 867,
      "nwps_buoy_id": "44025"
    },
    {
      "slug": "smith-point-beach",
      "name": "Smith Point Beach",
      "nwps_wfo": "okx",
      "nwps_grid": "CG1",
      "nwps_node_lat": 40.73022,
      "nwps_node_lng": -72.84503,
      "nwps_node_distance_m": 1638,
      "nwps_buoy_id": "44025"
    },
    {
      "slug": "cupsogue-beach",
      "name": "Cupsogue Beach",
      "nwps_wfo": "okx",
      "nwps_grid": "CG1",
      "nwps_node_lat": 40.76289,
      "nwps_node_lng": -72.73944,
      "nwps_node_distance_m": 756,
      "nwps_buoy_id": "44025"
    },
    {
      "slug": "ponquogue-beach",
      "name": "Ponquogue Beach",
      "nwps_wfo": "okx",
      "nwps_grid": "CG1",
      "nwps_node_lat": 40.82824,
      "nwps_node_lng": -72.48602,
      "nwps_node_distance_m": 1132,
      "nwps_buoy_id": "44025"
    },
    {
      "slug": "shinnecock-inlet",
      "name": "Shinnecock Inlet",
      "nwps_wfo": "okx",
      "nwps_grid": "CG1",
      "nwps_node_lat": 40.82824,
      "nwps_node_lng": -72.48602,
      "nwps_node_distance_m": 1383,
      "nwps_buoy_id": "44025"
    },
    {
      "slug": "flying-point-beach",
      "name": "Flying Point Beach",
      "nwps_wfo": "okx",
      "nwps_grid": "CG1",
      "nwps_node_lat": 40.86092,
      "nwps_node_lng": -72.38043,
      "nwps_node_distance_m": 1050,
      "nwps_buoy_id": "44025"
    },
    {
      "slug": "mecox-beach",
      "name": "Mecox Beach",
      "nwps_wfo": "okx",
      "nwps_grid": "CG1",
      "nwps_node_lat": 40.87725,
      "nwps_node_lng": -72.31708,
      "nwps_node_distance_m": 1785,
      "nwps_buoy_id": "44025"
    },
    {
      "slug": "georgica-beach",
      "name": "Georgica Beach",
      "nwps_wfo": "okx",
      "nwps_grid": "CG1",
      "nwps_node_lat": 40.92626,
      "nwps_node_lng": -72.21149,
      "nwps_node_distance_m": 944,
      "nwps_buoy_id": "44025"
    },
    {
      "slug": "main-beach-east-hampton",
      "name": "Main Beach East Hampton",
      "nwps_wfo": "okx",
      "nwps_grid": "CG1",
      "nwps_node_lat": 40.9426,
      "nwps_node_lng": -72.16925,
      "nwps_node_distance_m": 806,
      "nwps_buoy_id": "44025"
    },
    {
      "slug": "hither-hills",
      "name": "Hither Hills",
      "nwps_wfo": "okx",
      "nwps_grid": "CG1",
      "nwps_node_lat": 40.99161,
      "nwps_node_lng": -72.02143,
      "nwps_node_distance_m": 1109,
      "nwps_buoy_id": "44025"
    },
    {
      "slug": "terrace",
      "name": "Terrace",
      "nwps_wfo": "okx",
      "nwps_grid": "CG1",
      "nwps_node_lat": 41.02429,
      "nwps_node_lng": -71.93696,
      "nwps_node_distance_m": 982,
      "nwps_buoy_id": "44025"
    },
    {
      "slug": "poles",
      "name": "Poles",
      "nwps_wfo": "okx",
      "nwps_grid": "CG1",
      "nwps_node_lat": 41.02429,
      "nwps_node_lng": -71.91584,
      "nwps_node_distance_m": 1580,
      "nwps_buoy_id": "44025"
    },
    {
      "slug": "ditch-plains",
      "name": "Ditch Plains",
      "nwps_wfo": "okx",
      "nwps_grid": "CG1",
      "nwps_node_lat": 41.02429,
      "nwps_node_lng": -71.91584,
      "nwps_node_distance_m": 1604,
      "nwps_buoy_id": "44025"
    },
    {
      "slug": "montauk-point",
      "name": "Montauk Point",
      "nwps_wfo": "okx",
      "nwps_grid": "CG1",
      "nwps_node_lat": 41.0733,
      "nwps_node_lng": -71.85248,
      "nwps_node_distance_m": 338,
      "nwps_buoy_id": "44025"
    },
    {
      "slug": "radars",
      "name": "Radars",
      "nwps_wfo": "okx",
      "nwps_grid": "CG1",
      "nwps_node_lat": 41.05699,
      "nwps_node_lng": -71.85254,
      "nwps_node_distance_m": 1264,
      "nwps_buoy_id": "44025"
    },
    {
      "slug": "turtle-cove-montauk",
      "name": "Turtle Cove Montauk",
      "nwps_wfo": "okx",
      "nwps_grid": "CG1",
      "nwps_node_lat": 41.05699,
      "nwps_node_lng": -71.85254,
      "nwps_node_distance_m": 1137,
      "nwps_buoy_id": "44025"
    },
    {
      "slug": "ocean-grove",
      "name": "Ocean Grove",
      "nwps_wfo": "phi",
      "nwps_grid": "CG1",
      "nwps_node_lat": 40.20744,
      "nwps_node_lng": -73.9854,
      "nwps_node_distance_m": 1466,
      "nwps_buoy_id": "44065"
    },
    {
      "slug": "asbury-park",
      "name": "Asbury Park",
      "nwps_wfo": "phi",
      "nwps_grid": "CG1",
      "nwps_node_lat": 40.22377,
      "nwps_node_lng": -73.9854,
      "nwps_node_distance_m": 1329,
      "nwps_buoy_id": "44065"
    },
    {
      "slug": "deal",
      "name": "Deal",
      "nwps_wfo": "phi",
      "nwps_grid": "CG1",
      "nwps_node_lat": 40.22377,
      "nwps_node_lng": -73.9854,
      "nwps_node_distance_m": 892,
      "nwps_buoy_id": "44065"
    },
    {
      "slug": "long-branch",
      "name": "Long Branch",
      "nwps_wfo": "phi",
      "nwps_grid": "CG1",
      "nwps_node_lat": 40.30546,
      "nwps_node_lng": -73.96429,
      "nwps_node_distance_m": 1123,
      "nwps_buoy_id": "44065"
    },
    {
      "slug": "pier-village",
      "name": "Pier Village",
      "nwps_wfo": "phi",
      "nwps_grid": "CG1",
      "nwps_node_lat": 40.30546,
      "nwps_node_lng": -73.96429,
      "nwps_node_distance_m": 1074,
      "nwps_buoy_id": "44065"
    },
    {
      "slug": "monmouth",
      "name": "Monmouth",
      "nwps_wfo": "phi",
      "nwps_grid": "CG1",
      "nwps_node_lat": 40.33813,
      "nwps_node_lng": -73.96429,
      "nwps_node_distance_m": 702,
      "nwps_buoy_id": "44065"
    },
    {
      "slug": "sea-bright",
      "name": "Sea Bright",
      "nwps_wfo": "phi",
      "nwps_grid": "CG1",
      "nwps_node_lat": 40.35447,
      "nwps_node_lng": -73.96429,
      "nwps_node_distance_m": 911,
      "nwps_buoy_id": "44065"
    },
    {
      "slug": "sandy-hook",
      "name": "Sandy Hook",
      "nwps_wfo": "phi",
      "nwps_grid": "CG1",
      "nwps_node_lat": 40.45249,
      "nwps_node_lng": -73.96429,
      "nwps_node_distance_m": 1584,
      "nwps_buoy_id": "44065"
    },
    {
      "slug": "north-end-virginia-beach",
      "name": "North End Virginia Beach",
      "nwps_wfo": "akq",
      "nwps_grid": "CG1",
      "nwps_node_lat": 36.9035,
      "nwps_node_lng": -75.97566,
      "nwps_node_distance_m": 1122,
      "nwps_buoy_id": "44099"
    },
    {
      "slug": "virginia-beach-oceanfront",
      "name": "Virginia Beach Oceanfront",
      "nwps_wfo": "akq",
      "nwps_grid": "CG1",
      "nwps_node_lat": 36.83859,
      "nwps_node_lng": -75.95559,
      "nwps_node_distance_m": 1439,
      "nwps_buoy_id": "44099"
    },
    {
      "slug": "first-street-jetty-vb",
      "name": "First Street Jetty VB",
      "nwps_wfo": "akq",
      "nwps_grid": "CG1",
      "nwps_node_lat": 36.83859,
      "nwps_node_lng": -75.95559,
      "nwps_node_distance_m": 1376,
      "nwps_buoy_id": "44099"
    },
    {
      "slug": "croatan-beach",
      "name": "Croatan Beach",
      "nwps_wfo": "akq",
      "nwps_grid": "CG1",
      "nwps_node_lat": 36.82236,
      "nwps_node_lng": -75.95559,
      "nwps_node_distance_m": 1040,
      "nwps_buoy_id": "44099"
    },
    {
      "slug": "sandbridge-beach",
      "name": "Sandbridge Beach",
      "nwps_wfo": "akq",
      "nwps_grid": "CG1",
      "nwps_node_lat": 36.74122,
      "nwps_node_lng": -75.93553,
      "nwps_node_distance_m": 866,
      "nwps_buoy_id": "44099"
    },
    {
      "slug": "bradley-beach",
      "name": "Bradley Beach",
      "nwps_wfo": "phi",
      "nwps_grid": "CG1",
      "nwps_node_lat": 40.19457,
      "nwps_node_lng": -73.99138,
      "nwps_node_distance_m": 1301,
      "nwps_buoy_id": "44065"
    },
    {
      "slug": "avon-by-the-sea",
      "name": "Avon-by-the-Sea",
      "nwps_wfo": "phi",
      "nwps_grid": "CG1",
      "nwps_node_lat": 40.19457,
      "nwps_node_lng": -73.99138,
      "nwps_node_distance_m": 1457,
      "nwps_buoy_id": "44065"
    },
    {
      "slug": "belmar",
      "name": "Belmar",
      "nwps_wfo": "phi",
      "nwps_grid": "CG1",
      "nwps_node_lat": 40.17835,
      "nwps_node_lng": -73.99138,
      "nwps_node_distance_m": 1552,
      "nwps_buoy_id": "44065"
    },
    {
      "slug": "spring-lake",
      "name": "Spring Lake",
      "nwps_wfo": "phi",
      "nwps_grid": "CG1",
      "nwps_node_lat": 40.14592,
      "nwps_node_lng": -74.01207,
      "nwps_node_distance_m": 816,
      "nwps_buoy_id": "44065"
    },
    {
      "slug": "sea-girt",
      "name": "Sea Girt",
      "nwps_wfo": "phi",
      "nwps_grid": "CG1",
      "nwps_node_lat": 40.1297,
      "nwps_node_lng": -74.01207,
      "nwps_node_distance_m": 1247,
      "nwps_buoy_id": "44065"
    },
    {
      "slug": "manasquan-inlet",
      "name": "Manasquan Inlet",
      "nwps_wfo": "phi",
      "nwps_grid": "CG1",
      "nwps_node_lat": 40.11349,
      "nwps_node_lng": -74.03276,
      "nwps_node_distance_m": 1213,
      "nwps_buoy_id": "44065"
    },
    {
      "slug": "point-pleasant-beach",
      "name": "Point Pleasant Beach",
      "nwps_wfo": "phi",
      "nwps_grid": "CG1",
      "nwps_node_lat": 40.08106,
      "nwps_node_lng": -74.03276,
      "nwps_node_distance_m": 755,
      "nwps_buoy_id": "44091"
    },
    {
      "slug": "bay-head",
      "name": "Bay Head",
      "nwps_wfo": "phi",
      "nwps_grid": "CG1",
      "nwps_node_lat": 40.08106,
      "nwps_node_lng": -74.03276,
      "nwps_node_distance_m": 705,
      "nwps_buoy_id": "44091"
    },
    {
      "slug": "mantoloking",
      "name": "Mantoloking",
      "nwps_wfo": "phi",
      "nwps_grid": "CG1",
      "nwps_node_lat": 40.03241,
      "nwps_node_lng": -74.03276,
      "nwps_node_distance_m": 1535,
      "nwps_buoy_id": "44091"
    },
    {
      "slug": "seaside-heights",
      "name": "Seaside Heights",
      "nwps_wfo": "phi",
      "nwps_grid": "CG1",
      "nwps_node_lat": 39.95133,
      "nwps_node_lng": -74.05345,
      "nwps_node_distance_m": 1467,
      "nwps_buoy_id": "44091"
    },
    {
      "slug": "seaside-park",
      "name": "Seaside Park",
      "nwps_wfo": "phi",
      "nwps_grid": "CG1",
      "nwps_node_lat": 39.93511,
      "nwps_node_lng": -74.05345,
      "nwps_node_distance_m": 1441,
      "nwps_buoy_id": "44091"
    },
    {
      "slug": "island-beach-state-park",
      "name": "Island Beach State Park",
      "nwps_wfo": "phi",
      "nwps_grid": "CG1",
      "nwps_node_lat": 39.90268,
      "nwps_node_lng": -74.07414,
      "nwps_node_distance_m": 251,
      "nwps_buoy_id": "44091"
    },
    {
      "slug": "barnegat-light",
      "name": "Barnegat Light",
      "nwps_wfo": "phi",
      "nwps_grid": "CG1",
      "nwps_node_lat": 39.75674,
      "nwps_node_lng": -74.09483,
      "nwps_node_distance_m": 308,
      "nwps_buoy_id": "44091"
    },
    {
      "slug": "harvey-cedars",
      "name": "Harvey Cedars",
      "nwps_wfo": "phi",
      "nwps_grid": "CG1",
      "nwps_node_lat": 39.70809,
      "nwps_node_lng": -74.11552,
      "nwps_node_distance_m": 1487,
      "nwps_buoy_id": "44091"
    },
    {
      "slug": "surf-city-nj",
      "name": "Surf City NJ",
      "nwps_wfo": "phi",
      "nwps_grid": "CG1",
      "nwps_node_lat": 39.65944,
      "nwps_node_lng": -74.1569,
      "nwps_node_distance_m": 525,
      "nwps_buoy_id": "44091"
    },
    {
      "slug": "ship-bottom",
      "name": "Ship Bottom",
      "nwps_wfo": "phi",
      "nwps_grid": "CG1",
      "nwps_node_lat": 39.64322,
      "nwps_node_lng": -74.1569,
      "nwps_node_distance_m": 1345,
      "nwps_buoy_id": "44091"
    },
    {
      "slug": "long-beach-island",
      "name": "Long Beach Island",
      "nwps_wfo": "phi",
      "nwps_grid": "CG1",
      "nwps_node_lat": 39.62701,
      "nwps_node_lng": -74.17759,
      "nwps_node_distance_m": 925,
      "nwps_buoy_id": "44091"
    },
    {
      "slug": "long-beach-township",
      "name": "Long Beach Township",
      "nwps_wfo": "phi",
      "nwps_grid": "CG1",
      "nwps_node_lat": 39.61079,
      "nwps_node_lng": -74.19828,
      "nwps_node_distance_m": 618,
      "nwps_buoy_id": "44091"
    },
    {
      "slug": "beach-haven",
      "name": "Beach Haven",
      "nwps_wfo": "phi",
      "nwps_grid": "CG1",
      "nwps_node_lat": 39.56214,
      "nwps_node_lng": -74.21897,
      "nwps_node_distance_m": 1368,
      "nwps_buoy_id": "44091"
    },
    {
      "slug": "holyoke",
      "name": "Holyoke",
      "nwps_wfo": "phi",
      "nwps_grid": "CG1",
      "nwps_node_lat": 39.54593,
      "nwps_node_lng": -74.23966,
      "nwps_node_distance_m": 752,
      "nwps_buoy_id": "44091"
    },
    {
      "slug": "wooden-jetty",
      "name": "Wooden Jetty",
      "nwps_wfo": "phi",
      "nwps_grid": "CG1",
      "nwps_node_lat": 39.52971,
      "nwps_node_lng": -74.26034,
      "nwps_node_distance_m": 203,
      "nwps_buoy_id": "44091"
    },
    {
      "slug": "third-beach-newport",
      "name": "Third Beach Newport",
      "nwps_wfo": "box",
      "nwps_grid": "CG1",
      "nwps_node_lat": 41.49777,
      "nwps_node_lng": -71.22013,
      "nwps_node_distance_m": 2415,
      "nwps_buoy_id": "44097"
    },
    {
      "slug": "first-beach",
      "name": "First Beach",
      "nwps_wfo": "box",
      "nwps_grid": "CG1",
      "nwps_node_lat": 41.46164,
      "nwps_node_lng": -71.29123,
      "nwps_node_distance_m": 2825,
      "nwps_buoy_id": "44097"
    },
    {
      "slug": "second-beach-newport",
      "name": "Second Beach Newport",
      "nwps_wfo": "box",
      "nwps_grid": "CG1",
      "nwps_node_lat": 41.46164,
      "nwps_node_lng": -71.24383,
      "nwps_node_distance_m": 2829,
      "nwps_buoy_id": "44097"
    },
    {
      "slug": "ruggles",
      "name": "Ruggles",
      "nwps_wfo": "box",
      "nwps_grid": "CG1",
      "nwps_node_lat": 41.46164,
      "nwps_node_lng": -71.29123,
      "nwps_node_distance_m": 766,
      "nwps_buoy_id": "44097"
    },
    {
      "slug": "baileys-beach",
      "name": "Baileys Beach",
      "nwps_wfo": "box",
      "nwps_grid": "CG1",
      "nwps_node_lat": 41.44358,
      "nwps_node_lng": -71.31494,
      "nwps_node_distance_m": 1355,
      "nwps_buoy_id": "44097"
    },
    {
      "slug": "narrow-river",
      "name": "Narrow River",
      "nwps_wfo": "box",
      "nwps_grid": "CG1",
      "nwps_node_lat": 41.42551,
      "nwps_node_lng": -71.43344,
      "nwps_node_distance_m": 1796,
      "nwps_buoy_id": "44097"
    },
    {
      "slug": "narragansett-beach",
      "name": "Narragansett Beach",
      "nwps_wfo": "box",
      "nwps_grid": "CG1",
      "nwps_node_lat": 41.42551,
      "nwps_node_lng": -71.43344,
      "nwps_node_distance_m": 1950,
      "nwps_buoy_id": "44097"
    },
    {
      "slug": "monahans",
      "name": "Monahans",
      "nwps_wfo": "box",
      "nwps_grid": "CG1",
      "nwps_node_lat": 41.42551,
      "nwps_node_lng": -71.43344,
      "nwps_node_distance_m": 1868,
      "nwps_buoy_id": "44097"
    },
    {
      "slug": "scarborough",
      "name": "Scarborough",
      "nwps_wfo": "box",
      "nwps_grid": "CG1",
      "nwps_node_lat": 41.38938,
      "nwps_node_lng": -71.45714,
      "nwps_node_distance_m": 1495,
      "nwps_buoy_id": "44097"
    },
    {
      "slug": "east-matunuck-state-beach",
      "name": "East Matunuck State Beach",
      "nwps_wfo": "box",
      "nwps_grid": "CG1",
      "nwps_node_lat": 41.35325,
      "nwps_node_lng": -71.52825,
      "nwps_node_distance_m": 2590,
      "nwps_buoy_id": "44097"
    },
    {
      "slug": "salty-brine",
      "name": "Salty Brine",
      "nwps_wfo": "box",
      "nwps_grid": "CG1",
      "nwps_node_lat": 41.35325,
      "nwps_node_lng": -71.50455,
      "nwps_node_distance_m": 2496,
      "nwps_buoy_id": "44097"
    },
    {
      "slug": "marys",
      "name": "Marys",
      "nwps_wfo": "box",
      "nwps_grid": "CG1",
      "nwps_node_lat": 41.35325,
      "nwps_node_lng": -71.55195,
      "nwps_node_distance_m": 2348,
      "nwps_buoy_id": "44097"
    },
    {
      "slug": "matunuck",
      "name": "Matunuck",
      "nwps_wfo": "box",
      "nwps_grid": "CG1",
      "nwps_node_lat": 41.35325,
      "nwps_node_lng": -71.52825,
      "nwps_node_distance_m": 2294,
      "nwps_buoy_id": "44097"
    },
    {
      "slug": "deep-hole",
      "name": "Deep Hole",
      "nwps_wfo": "box",
      "nwps_grid": "CG1",
      "nwps_node_lat": 41.35325,
      "nwps_node_lng": -71.52825,
      "nwps_node_distance_m": 2258,
      "nwps_buoy_id": "44097"
    },
    {
      "slug": "moonstone-beach-ri",
      "name": "Moonstone Beach RI",
      "nwps_wfo": "box",
      "nwps_grid": "CG1",
      "nwps_node_lat": 41.35325,
      "nwps_node_lng": -71.57565,
      "nwps_node_distance_m": 2024,
      "nwps_buoy_id": "44097"
    },
    {
      "slug": "conant-ave",
      "name": "Conant Ave",
      "nwps_wfo": "box",
      "nwps_grid": "CG1",
      "nwps_node_lat": 41.35325,
      "nwps_node_lng": -71.48084,
      "nwps_node_distance_m": 1791,
      "nwps_buoy_id": "44097"
    },
    {
      "slug": "the-k-s",
      "name": "The K's",
      "nwps_wfo": "box",
      "nwps_grid": "CG1",
      "nwps_node_lat": 41.35325,
      "nwps_node_lng": -71.50455,
      "nwps_node_distance_m": 1853,
      "nwps_buoy_id": "44097"
    },
    {
      "slug": "pilgrim-ave",
      "name": "Pilgrim Ave",
      "nwps_wfo": "box",
      "nwps_grid": "CG1",
      "nwps_node_lat": 41.35325,
      "nwps_node_lng": -71.48084,
      "nwps_node_distance_m": 1391,
      "nwps_buoy_id": "44097"
    },
    {
      "slug": "point-judith",
      "name": "Point Judith",
      "nwps_wfo": "box",
      "nwps_grid": "CG1",
      "nwps_node_lat": 41.35325,
      "nwps_node_lng": -71.48084,
      "nwps_node_distance_m": 1035,
      "nwps_buoy_id": "44097"
    },
    {
      "slug": "point-judith-south",
      "name": "Point Judith South",
      "nwps_wfo": "box",
      "nwps_grid": "CG1",
      "nwps_node_lat": 41.35325,
      "nwps_node_lng": -71.48084,
      "nwps_node_distance_m": 802,
      "nwps_buoy_id": "44097"
    },
    {
      "slug": "charlestown-town-beach",
      "name": "Charlestown Town Beach",
      "nwps_wfo": "box",
      "nwps_grid": "CG1",
      "nwps_node_lat": 41.35325,
      "nwps_node_lng": -71.62305,
      "nwps_node_distance_m": 1040,
      "nwps_buoy_id": "44097"
    },
    {
      "slug": "breachway",
      "name": "Breachway",
      "nwps_wfo": "box",
      "nwps_grid": "CG1",
      "nwps_node_lat": 41.35325,
      "nwps_node_lng": -71.62305,
      "nwps_node_distance_m": 1354,
      "nwps_buoy_id": "44097"
    },
    {
      "slug": "east-beach",
      "name": "East Beach",
      "nwps_wfo": "box",
      "nwps_grid": "CG1",
      "nwps_node_lat": 41.33519,
      "nwps_node_lng": -71.64675,
      "nwps_node_distance_m": 2055,
      "nwps_buoy_id": "44097"
    },
    {
      "slug": "dunes-park",
      "name": "Dunes Park",
      "nwps_wfo": "box",
      "nwps_grid": "CG1",
      "nwps_node_lat": 41.31712,
      "nwps_node_lng": -71.76526,
      "nwps_node_distance_m": 1291,
      "nwps_buoy_id": "44097"
    },
    {
      "slug": "weekapaug",
      "name": "Weekapaug",
      "nwps_wfo": "box",
      "nwps_grid": "CG1",
      "nwps_node_lat": 41.31712,
      "nwps_node_lng": -71.76526,
      "nwps_node_distance_m": 1301,
      "nwps_buoy_id": "44097"
    },
    {
      "slug": "misquamicut-state-beach",
      "name": "Misquamicut State Beach",
      "nwps_wfo": "box",
      "nwps_grid": "CG1",
      "nwps_node_lat": 41.31712,
      "nwps_node_lng": -71.78896,
      "nwps_node_distance_m": 876,
      "nwps_buoy_id": "44097"
    },
    {
      "slug": "black-rock-point",
      "name": "Black Rock Point",
      "nwps_wfo": "box",
      "nwps_grid": "CG1",
      "nwps_node_lat": 41.13647,
      "nwps_node_lng": -71.57565,
      "nwps_node_distance_m": 1789,
      "nwps_buoy_id": "44097"
    },
    {
      "slug": "salisbury",
      "name": "Salisbury",
      "nwps_wfo": "box",
      "nwps_grid": "CG1",
      "nwps_node_lat": 42.83458,
      "nwps_node_lng": -70.79351,
      "nwps_node_distance_m": 1946,
      "nwps_buoy_id": "44098"
    },
    {
      "slug": "plum-island",
      "name": "Plum Island",
      "nwps_wfo": "box",
      "nwps_grid": "CG1",
      "nwps_node_lat": 42.79845,
      "nwps_node_lng": -70.79351,
      "nwps_node_distance_m": 1128,
      "nwps_buoy_id": "44098"
    },
    {
      "slug": "good-harbor-beach",
      "name": "Good Harbor Beach",
      "nwps_wfo": "box",
      "nwps_grid": "CG1",
      "nwps_node_lat": 42.6178,
      "nwps_node_lng": -70.6276,
      "nwps_node_distance_m": 222,
      "nwps_buoy_id": "44098"
    },
    {
      "slug": "pirates-cove",
      "name": "Pirates Cove",
      "nwps_wfo": "gyx",
      "nwps_grid": "CG1",
      "nwps_node_lat": 43.03137,
      "nwps_node_lng": -70.71406,
      "nwps_node_distance_m": 1552,
      "nwps_buoy_id": "44098"
    },
    {
      "slug": "straws-point",
      "name": "Straws Point",
      "nwps_wfo": "gyx",
      "nwps_grid": "CG1",
      "nwps_node_lat": 42.98627,
      "nwps_node_lng": -70.74453,
      "nwps_node_distance_m": 676,
      "nwps_buoy_id": "44098"
    },
    {
      "slug": "jenness-beach",
      "name": "Jenness Beach",
      "nwps_wfo": "gyx",
      "nwps_grid": "CG1",
      "nwps_node_lat": 42.98627,
      "nwps_node_lng": -70.74453,
      "nwps_node_distance_m": 1284,
      "nwps_buoy_id": "44098"
    },
    {
      "slug": "north-beach-rye",
      "name": "North Beach Rye",
      "nwps_wfo": "gyx",
      "nwps_grid": "CG1",
      "nwps_node_lat": 42.98627,
      "nwps_node_lng": -70.74453,
      "nwps_node_distance_m": 1838,
      "nwps_buoy_id": "44098"
    },
    {
      "slug": "fox-hill",
      "name": "Fox Hill",
      "nwps_wfo": "gyx",
      "nwps_grid": "CG1",
      "nwps_node_lat": 42.96372,
      "nwps_node_lng": -70.74453,
      "nwps_node_distance_m": 1882,
      "nwps_buoy_id": "44098"
    },
    {
      "slug": "costellos",
      "name": "Costellos",
      "nwps_wfo": "gyx",
      "nwps_grid": "CG1",
      "nwps_node_lat": 42.94118,
      "nwps_node_lng": -70.775,
      "nwps_node_distance_m": 1748,
      "nwps_buoy_id": "44098"
    },
    {
      "slug": "the-wall-hampton",
      "name": "The Wall Hampton",
      "nwps_wfo": "gyx",
      "nwps_grid": "CG1",
      "nwps_node_lat": 42.91863,
      "nwps_node_lng": -70.775,
      "nwps_node_distance_m": 2069,
      "nwps_buoy_id": "44098"
    },
    {
      "slug": "hampton-beach",
      "name": "Hampton Beach",
      "nwps_wfo": "gyx",
      "nwps_grid": "CG1",
      "nwps_node_lat": 42.89608,
      "nwps_node_lng": -70.80547,
      "nwps_node_distance_m": 1191,
      "nwps_buoy_id": "44098"
    },
    {
      "slug": "harbor-beach",
      "name": "Harbor Beach",
      "nwps_wfo": "gyx",
      "nwps_grid": "CG1",
      "nwps_node_lat": 43.12157,
      "nwps_node_lng": -70.62266,
      "nwps_node_distance_m": 1695,
      "nwps_buoy_id": "44098"
    },
    {
      "slug": "long-sands-beach",
      "name": "Long Sands Beach",
      "nwps_wfo": "gyx",
      "nwps_grid": "CG1",
      "nwps_node_lat": 43.14412,
      "nwps_node_lng": -70.62266,
      "nwps_node_distance_m": 2195,
      "nwps_buoy_id": "44098"
    },
    {
      "slug": "ogunquit",
      "name": "Ogunquit",
      "nwps_wfo": "gyx",
      "nwps_grid": "CG1",
      "nwps_node_lat": 43.25686,
      "nwps_node_lng": -70.56172,
      "nwps_node_distance_m": 2338,
      "nwps_buoy_id": "44098"
    },
    {
      "slug": "waddell-creek",
      "name": "Waddell Creek",
      "nwps_wfo": "mtr",
      "nwps_grid": "CG1",
      "nwps_node_lat": 37.07598,
      "nwps_node_lng": -122.28,
      "nwps_node_distance_m": 2297,
      "nwps_buoy_id": "46240"
    },
    {
      "slug": "davenport-landing",
      "name": "Davenport Landing",
      "nwps_wfo": "mtr",
      "nwps_grid": "CG1",
      "nwps_node_lat": 37.00829,
      "nwps_node_lng": -122.225,
      "nwps_node_distance_m": 2332,
      "nwps_buoy_id": "46240"
    },
    {
      "slug": "new-brighton-reef",
      "name": "New Brighton Reef",
      "nwps_wfo": "mtr",
      "nwps_grid": "CG1",
      "nwps_node_lat": 36.96316,
      "nwps_node_lng": -121.95,
      "nwps_node_distance_m": 2016,
      "nwps_buoy_id": "46240"
    },
    {
      "slug": "toes-over",
      "name": "Toes Over",
      "nwps_wfo": "mtr",
      "nwps_grid": "CG1",
      "nwps_node_lat": 36.96316,
      "nwps_node_lng": -121.95,
      "nwps_node_distance_m": 956,
      "nwps_buoy_id": "46240"
    },
    {
      "slug": "4-mile",
      "name": "4 Mile",
      "nwps_wfo": "mtr",
      "nwps_grid": "CG1",
      "nwps_node_lat": 36.96316,
      "nwps_node_lng": -122.1425,
      "nwps_node_distance_m": 1786,
      "nwps_buoy_id": "46240"
    },
    {
      "slug": "3-mile",
      "name": "3 Mile",
      "nwps_wfo": "mtr",
      "nwps_grid": "CG1",
      "nwps_node_lat": 36.94059,
      "nwps_node_lng": -122.115,
      "nwps_node_distance_m": 2307,
      "nwps_buoy_id": "46240"
    },
    {
      "slug": "cowell-s-beach-children-s-surfing-area",
      "name": "Cowell's Beach Children's Surfing Area",
      "nwps_wfo": "mtr",
      "nwps_grid": "CG1",
      "nwps_node_lat": 36.94059,
      "nwps_node_lng": -122.0325,
      "nwps_node_distance_m": 2323,
      "nwps_buoy_id": "46240"
    },
    {
      "slug": "the-hook",
      "name": "The Hook",
      "nwps_wfo": "mtr",
      "nwps_grid": "CG1",
      "nwps_node_lat": 36.96316,
      "nwps_node_lng": -121.95,
      "nwps_node_distance_m": 1348,
      "nwps_buoy_id": "46240"
    },
    {
      "slug": "38th-avenue",
      "name": "38th Avenue",
      "nwps_wfo": "mtr",
      "nwps_grid": "CG1",
      "nwps_node_lat": 36.96316,
      "nwps_node_lng": -121.95,
      "nwps_node_distance_m": 1532,
      "nwps_buoy_id": "46240"
    },
    {
      "slug": "second-peak",
      "name": "Second Peak",
      "nwps_wfo": "mtr",
      "nwps_grid": "CG1",
      "nwps_node_lat": 36.94059,
      "nwps_node_lng": -121.9775,
      "nwps_node_distance_m": 1782,
      "nwps_buoy_id": "46240"
    },
    {
      "slug": "first-peak",
      "name": "First Peak",
      "nwps_wfo": "mtr",
      "nwps_grid": "CG1",
      "nwps_node_lat": 36.94059,
      "nwps_node_lng": -121.9775,
      "nwps_node_distance_m": 1661,
      "nwps_buoy_id": "46240"
    },
    {
      "slug": "wind-and-sea",
      "name": "Wind and Sea",
      "nwps_wfo": "mtr",
      "nwps_grid": "CG1",
      "nwps_node_lat": 36.94059,
      "nwps_node_lng": -121.9775,
      "nwps_node_distance_m": 1504,
      "nwps_buoy_id": "46240"
    },
    {
      "slug": "pleasure-point",
      "name": "Pleasure Point",
      "nwps_wfo": "mtr",
      "nwps_grid": "CG1",
      "nwps_node_lat": 36.94059,
      "nwps_node_lng": -121.9775,
      "nwps_node_distance_m": 1582,
      "nwps_buoy_id": "46240"
    },
    {
      "slug": "sewer-peak",
      "name": "Sewer Peak",
      "nwps_wfo": "mtr",
      "nwps_grid": "CG1",
      "nwps_node_lat": 36.94059,
      "nwps_node_lng": -121.9775,
      "nwps_node_distance_m": 1496,
      "nwps_buoy_id": "46240"
    },
    {
      "slug": "steamer-lane",
      "name": "Steamer Lane",
      "nwps_wfo": "mtr",
      "nwps_grid": "CG1",
      "nwps_node_lat": 36.94059,
      "nwps_node_lng": -122.0325,
      "nwps_node_distance_m": 1359,
      "nwps_buoy_id": "46240"
    },
    {
      "slug": "mitchell-s-cove",
      "name": "Mitchell's Cove",
      "nwps_wfo": "mtr",
      "nwps_grid": "CG1",
      "nwps_node_lat": 36.94059,
      "nwps_node_lng": -122.0325,
      "nwps_node_distance_m": 1346,
      "nwps_buoy_id": "46240"
    },
    {
      "slug": "natural-bridges",
      "name": "Natural Bridges",
      "nwps_wfo": "mtr",
      "nwps_grid": "CG1",
      "nwps_node_lat": 36.94059,
      "nwps_node_lng": -122.06,
      "nwps_node_distance_m": 894,
      "nwps_buoy_id": "46240"
    },
    {
      "slug": "manresa-state-beach",
      "name": "Manresa State Beach",
      "nwps_wfo": "mtr",
      "nwps_grid": "CG1",
      "nwps_node_lat": 36.91803,
      "nwps_node_lng": -121.8675,
      "nwps_node_distance_m": 1059,
      "nwps_buoy_id": "46240"
    },
    {
      "slug": "moss-landing",
      "name": "Moss Landing",
      "nwps_wfo": "mtr",
      "nwps_grid": "CG1",
      "nwps_node_lat": 36.8052,
      "nwps_node_lng": -121.8125,
      "nwps_node_distance_m": 1921,
      "nwps_buoy_id": "46240"
    },
    {
      "slug": "marina-state-beach",
      "name": "Marina State Beach",
      "nwps_wfo": "mtr",
      "nwps_grid": "CG1",
      "nwps_node_lat": 36.71494,
      "nwps_node_lng": -121.8125,
      "nwps_node_distance_m": 1767,
      "nwps_buoy_id": "46240"
    },
    {
      "slug": "boneyard",
      "name": "Boneyard",
      "nwps_wfo": "mtr",
      "nwps_grid": "CG1",
      "nwps_node_lat": 36.64725,
      "nwps_node_lng": -121.9225,
      "nwps_node_distance_m": 1190,
      "nwps_buoy_id": "46240"
    },
    {
      "slug": "lovers-point",
      "name": "Lovers Point",
      "nwps_wfo": "mtr",
      "nwps_grid": "CG1",
      "nwps_node_lat": 36.62468,
      "nwps_node_lng": -121.895,
      "nwps_node_distance_m": 1785,
      "nwps_buoy_id": "46240"
    },
    {
      "slug": "monterey-beach",
      "name": "Monterey Beach",
      "nwps_wfo": "mtr",
      "nwps_grid": "CG1",
      "nwps_node_lat": 36.62468,
      "nwps_node_lng": -121.895,
      "nwps_node_distance_m": 2669,
      "nwps_buoy_id": "46240"
    },
    {
      "slug": "carmel-beach",
      "name": "Carmel Beach",
      "nwps_wfo": "mtr",
      "nwps_grid": "CG1",
      "nwps_node_lat": 36.55699,
      "nwps_node_lng": -121.95,
      "nwps_node_distance_m": 1831,
      "nwps_buoy_id": "46240"
    },
    {
      "slug": "pigeon-point",
      "name": "Pigeon Point",
      "nwps_wfo": "mtr",
      "nwps_grid": "CG1",
      "nwps_node_lat": 37.16624,
      "nwps_node_lng": -122.39,
      "nwps_node_distance_m": 1661,
      "nwps_buoy_id": "46284"
    },
    {
      "slug": "scotts-creek",
      "name": "Scotts Creek",
      "nwps_wfo": "mtr",
      "nwps_grid": "CG1",
      "nwps_node_lat": 37.03085,
      "nwps_node_lng": -122.2525,
      "nwps_node_distance_m": 2048,
      "nwps_buoy_id": "46284"
    },
    {
      "slug": "jenner-beach",
      "name": "Jenner Beach",
      "nwps_wfo": "mtr",
      "nwps_grid": "CG1",
      "nwps_node_lat": 38.42988,
      "nwps_node_lng": -123.1325,
      "nwps_node_distance_m": 2089,
      "nwps_buoy_id": "46237"
    },
    {
      "slug": "salmon-creek-beach",
      "name": "Salmon Creek Beach",
      "nwps_wfo": "mtr",
      "nwps_grid": "CG1",
      "nwps_node_lat": 38.33962,
      "nwps_node_lng": -123.0775,
      "nwps_node_distance_m": 680,
      "nwps_buoy_id": "46237"
    },
    {
      "slug": "doran-beach",
      "name": "Doran Beach",
      "nwps_wfo": "mtr",
      "nwps_grid": "CG1",
      "nwps_node_lat": 38.29449,
      "nwps_node_lng": -123.05,
      "nwps_node_distance_m": 1965,
      "nwps_buoy_id": "46237"
    },
    {
      "slug": "dillon-beach",
      "name": "Dillon Beach",
      "nwps_wfo": "mtr",
      "nwps_grid": "CG1",
      "nwps_node_lat": 38.24936,
      "nwps_node_lng": -122.995,
      "nwps_node_distance_m": 2280,
      "nwps_buoy_id": "46237"
    },
    {
      "slug": "point-reyes-north",
      "name": "Point Reyes North",
      "nwps_wfo": "mtr",
      "nwps_grid": "CG1",
      "nwps_node_lat": 38.09141,
      "nwps_node_lng": -122.995,
      "nwps_node_distance_m": 1918,
      "nwps_buoy_id": "46237"
    },
    {
      "slug": "bolinas",
      "name": "Bolinas",
      "nwps_wfo": "mtr",
      "nwps_grid": "CG1",
      "nwps_node_lat": 37.88832,
      "nwps_node_lng": -122.665,
      "nwps_node_distance_m": 2440,
      "nwps_buoy_id": "46237"
    },
    {
      "slug": "cronkhite",
      "name": "Cronkhite",
      "nwps_wfo": "mtr",
      "nwps_grid": "CG1",
      "nwps_node_lat": 37.82063,
      "nwps_node_lng": -122.555,
      "nwps_node_distance_m": 1754,
      "nwps_buoy_id": "46237"
    },
    {
      "slug": "fort-point",
      "name": "Fort Point",
      "nwps_wfo": "mtr",
      "nwps_grid": "CG1",
      "nwps_node_lat": 37.82063,
      "nwps_node_lng": -122.4725,
      "nwps_node_distance_m": 1096,
      "nwps_buoy_id": "46237"
    },
    {
      "slug": "sharp-park",
      "name": "Sharp Park",
      "nwps_wfo": "mtr",
      "nwps_grid": "CG1",
      "nwps_node_lat": 37.64011,
      "nwps_node_lng": -122.5,
      "nwps_node_distance_m": 902,
      "nwps_buoy_id": "46237"
    },
    {
      "slug": "rockaway-beach-pacifica",
      "name": "Rockaway Beach Pacifica",
      "nwps_wfo": "mtr",
      "nwps_grid": "CG1",
      "nwps_node_lat": 37.61754,
      "nwps_node_lng": -122.5,
      "nwps_node_distance_m": 877,
      "nwps_buoy_id": "46237"
    },
    {
      "slug": "pacifica-linda-mar",
      "name": "Pacifica Linda Mar",
      "nwps_wfo": "mtr",
      "nwps_grid": "CG1",
      "nwps_node_lat": 37.61754,
      "nwps_node_lng": -122.5,
      "nwps_node_distance_m": 1740,
      "nwps_buoy_id": "46237"
    },
    {
      "slug": "half-moon-bay-jetty",
      "name": "Half Moon Bay Jetty",
      "nwps_wfo": "mtr",
      "nwps_grid": "CG1",
      "nwps_node_lat": 37.48215,
      "nwps_node_lng": -122.4725,
      "nwps_node_distance_m": 1779,
      "nwps_buoy_id": "46237"
    },
    {
      "slug": "half-moon-bay",
      "name": "Half Moon Bay",
      "nwps_wfo": "mtr",
      "nwps_grid": "CG1",
      "nwps_node_lat": 37.48215,
      "nwps_node_lng": -122.4725,
      "nwps_node_distance_m": 1925,
      "nwps_buoy_id": "46237"
    },
    {
      "slug": "shell-beach-north",
      "name": "Shell Beach (North)",
      "nwps_wfo": "mtr",
      "nwps_grid": "CG1",
      "nwps_node_lat": 35.12581,
      "nwps_node_lng": -120.69532,
      "nwps_node_distance_m": 4176,
      "nwps_buoy_id": "46215"
    },
    {
      "slug": "shell-beach",
      "name": "Shell Beach",
      "nwps_wfo": "mtr",
      "nwps_grid": "CG1",
      "nwps_node_lat": 35.12581,
      "nwps_node_lng": -120.69532,
      "nwps_node_distance_m": 3843,
      "nwps_buoy_id": "46215"
    },
    {
      "slug": "pismo-beach-pier",
      "name": "Pismo Beach Pier",
      "nwps_wfo": "mtr",
      "nwps_grid": "CG1",
      "nwps_node_lat": 35.12581,
      "nwps_node_lng": -120.69532,
      "nwps_node_distance_m": 4817,
      "nwps_buoy_id": "46215"
    },
    {
      "slug": "grover-beach",
      "name": "Grover Beach",
      "nwps_wfo": "mtr",
      "nwps_grid": "CG1",
      "nwps_node_lat": 35.08973,
      "nwps_node_lng": -120.65234,
      "nwps_node_distance_m": 3685,
      "nwps_buoy_id": "46215"
    },
    {
      "slug": "county-line",
      "name": "County Line",
      "nwps_wfo": "lox",
      "nwps_grid": "CG1",
      "nwps_node_lat": 34.00724,
      "nwps_node_lng": -118.97617,
      "nwps_node_distance_m": 5127,
      "nwps_buoy_id": "46268"
    },
    {
      "slug": "leo-carrillo-state-beach",
      "name": "Leo Carrillo State Beach",
      "nwps_wfo": "lox",
      "nwps_grid": "CG1",
      "nwps_node_lat": 34.00724,
      "nwps_node_lng": -118.93319,
      "nwps_node_distance_m": 4145,
      "nwps_buoy_id": "46268"
    },
    {
      "slug": "chart-house",
      "name": "Chart House",
      "nwps_wfo": "lox",
      "nwps_grid": "CG1",
      "nwps_node_lat": 34.00724,
      "nwps_node_lng": -118.58936,
      "nwps_node_distance_m": 3766,
      "nwps_buoy_id": "46268"
    },
    {
      "slug": "sunset-point",
      "name": "Sunset Point",
      "nwps_wfo": "lox",
      "nwps_grid": "CG1",
      "nwps_node_lat": 34.00724,
      "nwps_node_lng": -118.54638,
      "nwps_node_distance_m": 3424,
      "nwps_buoy_id": "46268"
    },
    {
      "slug": "topanga-beach",
      "name": "Topanga Beach",
      "nwps_wfo": "lox",
      "nwps_grid": "CG1",
      "nwps_node_lat": 34.00724,
      "nwps_node_lng": -118.58936,
      "nwps_node_distance_m": 3402,
      "nwps_buoy_id": "46268"
    },
    {
      "slug": "will-rogers",
      "name": "Will Rogers",
      "nwps_wfo": "lox",
      "nwps_grid": "CG1",
      "nwps_node_lat": 34.00724,
      "nwps_node_lng": -118.54638,
      "nwps_node_distance_m": 3170,
      "nwps_buoy_id": "46268"
    },
    {
      "slug": "malibu-point",
      "name": "Malibu Point",
      "nwps_wfo": "lox",
      "nwps_grid": "CG1",
      "nwps_node_lat": 34.00724,
      "nwps_node_lng": -118.67532,
      "nwps_node_distance_m": 2815,
      "nwps_buoy_id": "46268"
    },
    {
      "slug": "malibu-surfrider-beach",
      "name": "Malibu Surfrider Beach",
      "nwps_wfo": "lox",
      "nwps_grid": "CG1",
      "nwps_node_lat": 34.00724,
      "nwps_node_lng": -118.67532,
      "nwps_node_distance_m": 2966,
      "nwps_buoy_id": "46268"
    },
    {
      "slug": "santa-monica-beach",
      "name": "Santa Monica Beach",
      "nwps_wfo": "lox",
      "nwps_grid": "CG1",
      "nwps_node_lat": 34.00724,
      "nwps_node_lng": -118.54638,
      "nwps_node_distance_m": 3752,
      "nwps_buoy_id": "46268"
    },
    {
      "slug": "zuma-beach",
      "name": "Zuma Beach",
      "nwps_wfo": "lox",
      "nwps_grid": "CG1",
      "nwps_node_lat": 34.00724,
      "nwps_node_lng": -118.84723,
      "nwps_node_distance_m": 2677,
      "nwps_buoy_id": "46268"
    },
    {
      "slug": "santa-monica-pier",
      "name": "Santa Monica Pier",
      "nwps_wfo": "lox",
      "nwps_grid": "CG1",
      "nwps_node_lat": 33.97115,
      "nwps_node_lng": -118.5034,
      "nwps_node_distance_m": 4077,
      "nwps_buoy_id": "46268"
    },
    {
      "slug": "point-dume",
      "name": "Point Dume",
      "nwps_wfo": "lox",
      "nwps_grid": "CG1",
      "nwps_node_lat": 33.97115,
      "nwps_node_lng": -118.80426,
      "nwps_node_distance_m": 3121,
      "nwps_buoy_id": "46268"
    },
    {
      "slug": "venice-beach-breakwater",
      "name": "Venice Beach Breakwater",
      "nwps_wfo": "lox",
      "nwps_grid": "CG1",
      "nwps_node_lat": 33.97115,
      "nwps_node_lng": -118.5034,
      "nwps_node_distance_m": 2873,
      "nwps_buoy_id": "46268"
    },
    {
      "slug": "venice-beach-pier",
      "name": "Venice Beach Pier",
      "nwps_wfo": "lox",
      "nwps_grid": "CG1",
      "nwps_node_lat": 33.97115,
      "nwps_node_lng": -118.5034,
      "nwps_node_distance_m": 3174,
      "nwps_buoy_id": "46268"
    },
    {
      "slug": "dockweiler-beach",
      "name": "Dockweiler Beach",
      "nwps_wfo": "lox",
      "nwps_grid": "CG1",
      "nwps_node_lat": 33.93507,
      "nwps_node_lng": -118.46043,
      "nwps_node_distance_m": 1706,
      "nwps_buoy_id": "46268"
    },
    {
      "slug": "shitpipe",
      "name": "Shitpipe",
      "nwps_wfo": "lox",
      "nwps_grid": "CG1",
      "nwps_node_lat": 33.93507,
      "nwps_node_lng": -118.46043,
      "nwps_node_distance_m": 2741,
      "nwps_buoy_id": "46268"
    },
    {
      "slug": "el-porto",
      "name": "El Porto",
      "nwps_wfo": "lox",
      "nwps_grid": "CG1",
      "nwps_node_lat": 33.89899,
      "nwps_node_lng": -118.46043,
      "nwps_node_distance_m": 3348,
      "nwps_buoy_id": "46268"
    },
    {
      "slug": "bruce-s-beach",
      "name": "Bruce's Beach",
      "nwps_wfo": "lox",
      "nwps_grid": "CG1",
      "nwps_node_lat": 33.89899,
      "nwps_node_lng": -118.46043,
      "nwps_node_distance_m": 3875,
      "nwps_buoy_id": "46268"
    },
    {
      "slug": "andrew-molera-state-park",
      "name": "Andrew Molera State Park",
      "nwps_wfo": "mtr",
      "nwps_grid": "CG1",
      "nwps_node_lat": 36.26364,
      "nwps_node_lng": -121.8675,
      "nwps_node_distance_m": 1932,
      "nwps_buoy_id": "46215"
    },
    {
      "slug": "sand-dollar-beach",
      "name": "Sand Dollar Beach",
      "nwps_wfo": "mtr",
      "nwps_grid": "CG1",
      "nwps_node_lat": 35.92517,
      "nwps_node_lng": -121.4825,
      "nwps_node_distance_m": 1098,
      "nwps_buoy_id": "46215"
    },
    {
      "slug": "piedras-blancas",
      "name": "Piedras Blancas",
      "nwps_wfo": "mtr",
      "nwps_grid": "CG1",
      "nwps_node_lat": 35.65439,
      "nwps_node_lng": -121.29,
      "nwps_node_distance_m": 1044,
      "nwps_buoy_id": "46215"
    },
    {
      "slug": "san-simeon",
      "name": "San Simeon",
      "nwps_wfo": "mtr",
      "nwps_grid": "CG1",
      "nwps_node_lat": 35.60926,
      "nwps_node_lng": -121.1525,
      "nwps_node_distance_m": 562,
      "nwps_buoy_id": "46215"
    },
    {
      "slug": "cayucos-pier",
      "name": "Cayucos Pier",
      "nwps_wfo": "mtr",
      "nwps_grid": "CG1",
      "nwps_node_lat": 35.42874,
      "nwps_node_lng": -120.905,
      "nwps_node_distance_m": 2139,
      "nwps_buoy_id": "46215"
    },
    {
      "slug": "morro-rock",
      "name": "Morro Rock",
      "nwps_wfo": "mtr",
      "nwps_grid": "CG1",
      "nwps_node_lat": 35.36104,
      "nwps_node_lng": -120.8775,
      "nwps_node_distance_m": 1609,
      "nwps_buoy_id": "46215"
    },
    {
      "slug": "cable-landing",
      "name": "Cable Landing",
      "nwps_wfo": "mtr",
      "nwps_grid": "CG1",
      "nwps_node_lat": 35.31591,
      "nwps_node_lng": -120.8775,
      "nwps_node_distance_m": 902,
      "nwps_buoy_id": "46215"
    },
    {
      "slug": "avila-beach",
      "name": "Avila Beach",
      "nwps_wfo": "mtr",
      "nwps_grid": "CG1",
      "nwps_node_lat": 35.15796,
      "nwps_node_lng": -120.74,
      "nwps_node_distance_m": 2214,
      "nwps_buoy_id": "46215"
    },
    {
      "slug": "hermosa-beach-california",
      "name": "Hermosa Beach, California",
      "nwps_wfo": "lox",
      "nwps_grid": "CG1",
      "nwps_node_lat": 33.82682,
      "nwps_node_lng": -118.41745,
      "nwps_node_distance_m": 4810,
      "nwps_buoy_id": "46256"
    },
    {
      "slug": "hermosa-beach-pier",
      "name": "Hermosa Beach Pier",
      "nwps_wfo": "lox",
      "nwps_grid": "CG1",
      "nwps_node_lat": 33.82682,
      "nwps_node_lng": -118.41745,
      "nwps_node_distance_m": 4067,
      "nwps_buoy_id": "46256"
    },
    {
      "slug": "redondo-breakwater",
      "name": "Redondo Breakwater",
      "nwps_wfo": "lox",
      "nwps_grid": "CG1",
      "nwps_node_lat": 33.82682,
      "nwps_node_lng": -118.41745,
      "nwps_node_distance_m": 2426,
      "nwps_buoy_id": "46256"
    },
    {
      "slug": "redondo-beach-california",
      "name": "Redondo Beach, California",
      "nwps_wfo": "lox",
      "nwps_grid": "CG1",
      "nwps_node_lat": 33.82682,
      "nwps_node_lng": -118.41745,
      "nwps_node_distance_m": 2658,
      "nwps_buoy_id": "46256"
    },
    {
      "slug": "rat-beach",
      "name": "Rat Beach",
      "nwps_wfo": "lox",
      "nwps_grid": "CG1",
      "nwps_node_lat": 33.82682,
      "nwps_node_lng": -118.41745,
      "nwps_node_distance_m": 3205,
      "nwps_buoy_id": "46256"
    },
    {
      "slug": "haggarty-s",
      "name": "Haggarty's",
      "nwps_wfo": "lox",
      "nwps_grid": "CG1",
      "nwps_node_lat": 33.82682,
      "nwps_node_lng": -118.41745,
      "nwps_node_distance_m": 3043,
      "nwps_buoy_id": "46256"
    },
    {
      "slug": "palos-verdes-cove",
      "name": "Palos Verdes Cove",
      "nwps_wfo": "lox",
      "nwps_grid": "CG1",
      "nwps_node_lat": 33.82682,
      "nwps_node_lng": -118.41745,
      "nwps_node_distance_m": 3885,
      "nwps_buoy_id": "46256"
    },
    {
      "slug": "seal-beach-jetty",
      "name": "Seal Beach Jetty",
      "nwps_wfo": "lox",
      "nwps_grid": "CG1",
      "nwps_node_lat": 33.71857,
      "nwps_node_lng": -118.1166,
      "nwps_node_distance_m": 2300,
      "nwps_buoy_id": "46256"
    },
    {
      "slug": "seal-beach-pier",
      "name": "Seal Beach Pier",
      "nwps_wfo": "lox",
      "nwps_grid": "CG1",
      "nwps_node_lat": 33.71857,
      "nwps_node_lng": -118.1166,
      "nwps_node_distance_m": 2266,
      "nwps_buoy_id": "46256"
    },
    {
      "slug": "surfside-jetty",
      "name": "Surfside Jetty",
      "nwps_wfo": "lox",
      "nwps_grid": "CG1",
      "nwps_node_lat": 33.71857,
      "nwps_node_lng": -118.1166,
      "nwps_node_distance_m": 2768,
      "nwps_buoy_id": "46256"
    },
    {
      "slug": "surfside-california",
      "name": "Surfside, California",
      "nwps_wfo": "lox",
      "nwps_grid": "CG1",
      "nwps_node_lat": 33.71857,
      "nwps_node_lng": -118.1166,
      "nwps_node_distance_m": 3075,
      "nwps_buoy_id": "46256"
    },
    {
      "slug": "cabrillo-beach",
      "name": "Cabrillo Beach",
      "nwps_wfo": "lox",
      "nwps_grid": "CG1",
      "nwps_node_lat": 33.68249,
      "nwps_node_lng": -118.28851,
      "nwps_node_distance_m": 2486,
      "nwps_buoy_id": "46256"
    },
    {
      "slug": "white-point",
      "name": "White Point",
      "nwps_wfo": "lox",
      "nwps_grid": "CG1",
      "nwps_node_lat": 33.68249,
      "nwps_node_lng": -118.28851,
      "nwps_node_distance_m": 2530,
      "nwps_buoy_id": "46256"
    },
    {
      "slug": "bolsa-chica-state-beach",
      "name": "Bolsa Chica State Beach",
      "nwps_wfo": "lox",
      "nwps_grid": "CG1",
      "nwps_node_lat": 33.68249,
      "nwps_node_lng": -118.07362,
      "nwps_node_distance_m": 2668,
      "nwps_buoy_id": "46256"
    },
    {
      "slug": "huntington-cliffs",
      "name": "Huntington Cliffs",
      "nwps_wfo": "lox",
      "nwps_grid": "CG1",
      "nwps_node_lat": 33.64641,
      "nwps_node_lng": -118.03064,
      "nwps_node_distance_m": 2345,
      "nwps_buoy_id": "46256"
    },
    {
      "slug": "huntington-beach-pier",
      "name": "Huntington Beach Pier",
      "nwps_wfo": "lox",
      "nwps_grid": "CG1",
      "nwps_node_lat": 33.64641,
      "nwps_node_lng": -118.03064,
      "nwps_node_distance_m": 2572,
      "nwps_buoy_id": "46256"
    },
    {
      "slug": "huntington-beach-california",
      "name": "Huntington Beach, California",
      "nwps_wfo": "lox",
      "nwps_grid": "CG1",
      "nwps_node_lat": 33.61032,
      "nwps_node_lng": -117.98766,
      "nwps_node_distance_m": 3373,
      "nwps_buoy_id": "46256"
    },
    {
      "slug": "river-jetties",
      "name": "River Jetties",
      "nwps_wfo": "lox",
      "nwps_grid": "CG1",
      "nwps_node_lat": 33.61032,
      "nwps_node_lng": -117.98766,
      "nwps_node_distance_m": 3292,
      "nwps_buoy_id": "46256"
    },
    {
      "slug": "newport-jetties",
      "name": "Newport Jetties",
      "nwps_wfo": "lox",
      "nwps_grid": "CG1",
      "nwps_node_lat": 33.61032,
      "nwps_node_lng": -117.98766,
      "nwps_node_distance_m": 4423,
      "nwps_buoy_id": "46256"
    },
    {
      "slug": "blackies",
      "name": "Blackies",
      "nwps_wfo": "lox",
      "nwps_grid": "CG1",
      "nwps_node_lat": 33.57424,
      "nwps_node_lng": -117.94468,
      "nwps_node_distance_m": 4030,
      "nwps_buoy_id": "46256"
    },
    {
      "slug": "newport-point",
      "name": "Newport Point",
      "nwps_wfo": "lox",
      "nwps_grid": "CG1",
      "nwps_node_lat": 33.57424,
      "nwps_node_lng": -117.94468,
      "nwps_node_distance_m": 3708,
      "nwps_buoy_id": "46256"
    },
    {
      "slug": "newport-beach-california",
      "name": "Newport Beach, California",
      "nwps_wfo": "lox",
      "nwps_grid": "CG1",
      "nwps_node_lat": 33.57424,
      "nwps_node_lng": -117.9017,
      "nwps_node_distance_m": 3422,
      "nwps_buoy_id": "46256"
    },
    {
      "slug": "refugio-state-beach",
      "name": "Refugio State Beach",
      "nwps_wfo": "lox",
      "nwps_grid": "CG1",
      "nwps_node_lat": 34.44023,
      "nwps_node_lng": -120.05064,
      "nwps_node_distance_m": 2404,
      "nwps_buoy_id": null
    },
    {
      "slug": "el-capitan-state-beach",
      "name": "El Capitan State Beach",
      "nwps_wfo": "lox",
      "nwps_grid": "CG1",
      "nwps_node_lat": 34.44023,
      "nwps_node_lng": -120.00766,
      "nwps_node_distance_m": 2600,
      "nwps_buoy_id": null
    },
    {
      "slug": "rockpile",
      "name": "Rockpile",
      "nwps_wfo": "lox",
      "nwps_grid": "CG1",
      "nwps_node_lat": 34.40415,
      "nwps_node_lng": -119.9217,
      "nwps_node_distance_m": 2668,
      "nwps_buoy_id": null
    },
    {
      "slug": "miramar",
      "name": "Miramar",
      "nwps_wfo": "lox",
      "nwps_grid": "CG1",
      "nwps_node_lat": 34.40415,
      "nwps_node_lng": -119.62085,
      "nwps_node_distance_m": 1616,
      "nwps_buoy_id": null
    },
    {
      "slug": "hammonds",
      "name": "Hammonds",
      "nwps_wfo": "lox",
      "nwps_grid": "CG1",
      "nwps_node_lat": 34.40415,
      "nwps_node_lng": -119.62085,
      "nwps_node_distance_m": 1944,
      "nwps_buoy_id": null
    },
    {
      "slug": "devereux",
      "name": "Devereux",
      "nwps_wfo": "lox",
      "nwps_grid": "CG1",
      "nwps_node_lat": 34.40415,
      "nwps_node_lng": -119.87872,
      "nwps_node_distance_m": 601,
      "nwps_buoy_id": null
    },
    {
      "slug": "campus-point-ucsb",
      "name": "Campus Point UCSB",
      "nwps_wfo": "lox",
      "nwps_grid": "CG1",
      "nwps_node_lat": 34.40415,
      "nwps_node_lng": -119.83574,
      "nwps_node_distance_m": 711,
      "nwps_buoy_id": null
    },
    {
      "slug": "sandspit",
      "name": "Sandspit",
      "nwps_wfo": "lox",
      "nwps_grid": "CG1",
      "nwps_node_lat": 34.36807,
      "nwps_node_lng": -119.66383,
      "nwps_node_distance_m": 4675,
      "nwps_buoy_id": null
    },
    {
      "slug": "leadbetter-beach",
      "name": "Leadbetter Beach",
      "nwps_wfo": "lox",
      "nwps_grid": "CG1",
      "nwps_node_lat": 34.36807,
      "nwps_node_lng": -119.70681,
      "nwps_node_distance_m": 3699,
      "nwps_buoy_id": null
    },
    {
      "slug": "mesa-lane",
      "name": "Mesa Lane",
      "nwps_wfo": "lox",
      "nwps_grid": "CG1",
      "nwps_node_lat": 34.36807,
      "nwps_node_lng": -119.70681,
      "nwps_node_distance_m": 3531,
      "nwps_buoy_id": null
    },
    {
      "slug": "carpinteria-state-beach",
      "name": "Carpinteria State Beach",
      "nwps_wfo": "lox",
      "nwps_grid": "CG1",
      "nwps_node_lat": 34.36807,
      "nwps_node_lng": -119.53489,
      "nwps_node_distance_m": 2756,
      "nwps_buoy_id": null
    },
    {
      "slug": "tarpits",
      "name": "Tarpits",
      "nwps_wfo": "lox",
      "nwps_grid": "CG1",
      "nwps_node_lat": 34.36807,
      "nwps_node_lng": -119.49191,
      "nwps_node_distance_m": 1933,
      "nwps_buoy_id": null
    },
    {
      "slug": "rincon",
      "name": "Rincon",
      "nwps_wfo": "lox",
      "nwps_grid": "CG1",
      "nwps_node_lat": 34.36807,
      "nwps_node_lng": -119.49191,
      "nwps_node_distance_m": 1299,
      "nwps_buoy_id": null
    },
    {
      "slug": "mussel-shoals",
      "name": "Mussel Shoals",
      "nwps_wfo": "lox",
      "nwps_grid": "CG1",
      "nwps_node_lat": 34.33198,
      "nwps_node_lng": -119.44894,
      "nwps_node_distance_m": 2626,
      "nwps_buoy_id": null
    },
    {
      "slug": "faria-beach",
      "name": "Faria Beach",
      "nwps_wfo": "lox",
      "nwps_grid": "CG1",
      "nwps_node_lat": 34.33198,
      "nwps_node_lng": -119.44894,
      "nwps_node_distance_m": 3826,
      "nwps_buoy_id": null
    },
    {
      "slug": "mondos",
      "name": "Mondos",
      "nwps_wfo": "lox",
      "nwps_grid": "CG1",
      "nwps_node_lat": 34.2959,
      "nwps_node_lng": -119.40596,
      "nwps_node_distance_m": 3936,
      "nwps_buoy_id": null
    },
    {
      "slug": "pitas-point",
      "name": "Pitas Point",
      "nwps_wfo": "lox",
      "nwps_grid": "CG1",
      "nwps_node_lat": 34.2959,
      "nwps_node_lng": -119.40596,
      "nwps_node_distance_m": 2800,
      "nwps_buoy_id": null
    },
    {
      "slug": "emma-wood-state-beach",
      "name": "Emma Wood State Beach",
      "nwps_wfo": "lox",
      "nwps_grid": "CG1",
      "nwps_node_lat": 34.25982,
      "nwps_node_lng": -119.32,
      "nwps_node_distance_m": 2722,
      "nwps_buoy_id": null
    },
    {
      "slug": "c-street-ventura",
      "name": "C Street Ventura",
      "nwps_wfo": "lox",
      "nwps_grid": "CG1",
      "nwps_node_lat": 34.25982,
      "nwps_node_lng": -119.32,
      "nwps_node_distance_m": 2988,
      "nwps_buoy_id": null
    },
    {
      "slug": "ventura-point",
      "name": "Ventura Point",
      "nwps_wfo": "lox",
      "nwps_grid": "CG1",
      "nwps_node_lat": 34.25982,
      "nwps_node_lng": -119.32,
      "nwps_node_distance_m": 1950,
      "nwps_buoy_id": null
    },
    {
      "slug": "ventura-harbor",
      "name": "Ventura Harbor",
      "nwps_wfo": "lox",
      "nwps_grid": "CG1",
      "nwps_node_lat": 34.22373,
      "nwps_node_lng": -119.27702,
      "nwps_node_distance_m": 2480,
      "nwps_buoy_id": null
    },
    {
      "slug": "oxnard-beach",
      "name": "Oxnard Beach",
      "nwps_wfo": "lox",
      "nwps_grid": "CG1",
      "nwps_node_lat": 34.15157,
      "nwps_node_lng": -119.23404,
      "nwps_node_distance_m": 2999,
      "nwps_buoy_id": null
    },
    {
      "slug": "silver-strand",
      "name": "Silver Strand",
      "nwps_wfo": "lox",
      "nwps_grid": "CG1",
      "nwps_node_lat": 34.15157,
      "nwps_node_lng": -119.23404,
      "nwps_node_distance_m": 1207,
      "nwps_buoy_id": null
    },
    {
      "slug": "port-hueneme",
      "name": "Port Hueneme",
      "nwps_wfo": "lox",
      "nwps_grid": "CG1",
      "nwps_node_lat": 34.11549,
      "nwps_node_lng": -119.19106,
      "nwps_node_distance_m": 2572,
      "nwps_buoy_id": null
    },
    {
      "slug": "crescent-city-beach",
      "name": "Crescent City Beach",
      "nwps_wfo": "eka",
      "nwps_grid": "CG1",
      "nwps_node_lat": 41.72957,
      "nwps_node_lng": -124.18429,
      "nwps_node_distance_m": 1639,
      "nwps_buoy_id": null
    },
    {
      "slug": "agate-beach",
      "name": "Agate Beach",
      "nwps_wfo": "eka",
      "nwps_grid": "CG1",
      "nwps_node_lat": 41.15052,
      "nwps_node_lng": -124.18429,
      "nwps_node_distance_m": 3466,
      "nwps_buoy_id": null
    },
    {
      "slug": "trinidad-state-beach",
      "name": "Trinidad State Beach",
      "nwps_wfo": "eka",
      "nwps_grid": "CG1",
      "nwps_node_lat": 41.04194,
      "nwps_node_lng": -124.18429,
      "nwps_node_distance_m": 3355,
      "nwps_buoy_id": null
    },
    {
      "slug": "moonstone-beach-humboldt",
      "name": "Moonstone Beach Humboldt",
      "nwps_wfo": "eka",
      "nwps_grid": "CG1",
      "nwps_node_lat": 41.04194,
      "nwps_node_lng": -124.13794,
      "nwps_node_distance_m": 2727,
      "nwps_buoy_id": null
    },
    {
      "slug": "shelter-cove",
      "name": "Shelter Cove",
      "nwps_wfo": "eka",
      "nwps_grid": "CG1",
      "nwps_node_lat": 39.9924,
      "nwps_node_lng": -124.04524,
      "nwps_node_distance_m": 3771,
      "nwps_buoy_id": null
    },
    {
      "slug": "westport",
      "name": "Westport",
      "nwps_wfo": "eka",
      "nwps_grid": "CG1",
      "nwps_node_lat": 39.63049,
      "nwps_node_lng": -123.81349,
      "nwps_node_distance_m": 2344,
      "nwps_buoy_id": null
    },
    {
      "slug": "ten-mile-beach",
      "name": "Ten Mile Beach",
      "nwps_wfo": "eka",
      "nwps_grid": "CG1",
      "nwps_node_lat": 39.52192,
      "nwps_node_lng": -123.81349,
      "nwps_node_distance_m": 3865,
      "nwps_buoy_id": null
    },
    {
      "slug": "mackerricher",
      "name": "Mackerricher",
      "nwps_wfo": "eka",
      "nwps_grid": "CG1",
      "nwps_node_lat": 39.48573,
      "nwps_node_lng": -123.81349,
      "nwps_node_distance_m": 1411,
      "nwps_buoy_id": null
    },
    {
      "slug": "jug-handle",
      "name": "Jug Handle",
      "nwps_wfo": "eka",
      "nwps_grid": "CG1",
      "nwps_node_lat": 39.37716,
      "nwps_node_lng": -123.85984,
      "nwps_node_distance_m": 3545,
      "nwps_buoy_id": null
    },
    {
      "slug": "caspar",
      "name": "Caspar",
      "nwps_wfo": "eka",
      "nwps_grid": "CG1",
      "nwps_node_lat": 39.37716,
      "nwps_node_lng": -123.85984,
      "nwps_node_distance_m": 4033,
      "nwps_buoy_id": null
    },
    {
      "slug": "mendocino",
      "name": "Mendocino",
      "nwps_wfo": "eka",
      "nwps_grid": "CG1",
      "nwps_node_lat": 39.30478,
      "nwps_node_lng": -123.81349,
      "nwps_node_distance_m": 1406,
      "nwps_buoy_id": null
    },
    {
      "slug": "point-arena",
      "name": "Point Arena",
      "nwps_wfo": "mtr",
      "nwps_grid": "CG1",
      "nwps_node_lat": 38.90375,
      "nwps_node_lng": -123.71,
      "nwps_node_distance_m": 574,
      "nwps_buoy_id": null
    },
    {
      "slug": "16th-street-south",
      "name": "16th Street South",
      "nwps_wfo": "mlb",
      "nwps_grid": "CG1",
      "nwps_node_lat": 28.29864,
      "nwps_node_lng": -80.60025,
      "nwps_node_distance_m": 748,
      "nwps_buoy_id": "41113"
    },
    {
      "slug": "canova-beach-park",
      "name": "Canova Beach Park",
      "nwps_wfo": "mlb",
      "nwps_grid": "CG1",
      "nwps_node_lat": 28.1366,
      "nwps_node_lng": -80.5639,
      "nwps_node_distance_m": 1536,
      "nwps_buoy_id": "41113"
    },
    {
      "slug": "cocoa-beach-pier",
      "name": "Cocoa Beach Pier",
      "nwps_wfo": "mlb",
      "nwps_grid": "CG1",
      "nwps_node_lat": 28.36346,
      "nwps_node_lng": -80.60025,
      "nwps_node_distance_m": 461,
      "nwps_buoy_id": "41113"
    },
    {
      "slug": "jetty-park-cocoa-beach",
      "name": "Jetty Park Cocoa Beach",
      "nwps_wfo": "mlb",
      "nwps_grid": "CG1",
      "nwps_node_lat": 28.41207,
      "nwps_node_lng": -80.58208,
      "nwps_node_distance_m": 854,
      "nwps_buoy_id": "41113"
    },
    {
      "slug": "lori-wilson-park",
      "name": "Lori Wilson Park",
      "nwps_wfo": "mlb",
      "nwps_grid": "CG1",
      "nwps_node_lat": 28.33105,
      "nwps_node_lng": -80.60025,
      "nwps_node_distance_m": 641,
      "nwps_buoy_id": "41113"
    },
    {
      "slug": "patrick-air-force-base-beach",
      "name": "Patrick Air Force Base Beach",
      "nwps_wfo": "mlb",
      "nwps_grid": "CG1",
      "nwps_node_lat": 28.26624,
      "nwps_node_lng": -80.60025,
      "nwps_node_distance_m": 904,
      "nwps_buoy_id": "41113"
    },
    {
      "slug": "pelican-beach",
      "name": "Pelican Beach",
      "nwps_wfo": "mlb",
      "nwps_grid": "CG1",
      "nwps_node_lat": 28.16901,
      "nwps_node_lng": -80.58208,
      "nwps_node_distance_m": 525,
      "nwps_buoy_id": "41113"
    },
    {
      "slug": "satellite-beach",
      "name": "Satellite Beach",
      "nwps_wfo": "mlb",
      "nwps_grid": "CG1",
      "nwps_node_lat": 28.16901,
      "nwps_node_lng": -80.58208,
      "nwps_node_distance_m": 708,
      "nwps_buoy_id": "41113"
    },
    {
      "slug": "bathtub-beach",
      "name": "Bathtub Beach",
      "nwps_wfo": "mlb",
      "nwps_grid": "CG1",
      "nwps_node_lat": 27.19677,
      "nwps_node_lng": -80.16403,
      "nwps_node_distance_m": 1273,
      "nwps_buoy_id": null
    },
    {
      "slug": "fort-pierce-inlet",
      "name": "Fort Pierce Inlet",
      "nwps_wfo": "mlb",
      "nwps_grid": "CG1",
      "nwps_node_lat": 27.47224,
      "nwps_node_lng": -80.27308,
      "nwps_node_distance_m": 1576,
      "nwps_buoy_id": null
    },
    {
      "slug": "jensen-beach",
      "name": "Jensen Beach",
      "nwps_wfo": "mlb",
      "nwps_grid": "CG1",
      "nwps_node_lat": 27.27779,
      "nwps_node_lng": -80.20038,
      "nwps_node_distance_m": 611,
      "nwps_buoy_id": null
    },
    {
      "slug": "vero-pier",
      "name": "Vero Pier",
      "nwps_wfo": "mlb",
      "nwps_grid": "CG1",
      "nwps_node_lat": 27.66669,
      "nwps_node_lng": -80.34579,
      "nwps_node_distance_m": 1439,
      "nwps_buoy_id": null
    },
    {
      "slug": "indiatlantic",
      "name": "Indiatlantic",
      "nwps_wfo": "mlb",
      "nwps_grid": "CG1",
      "nwps_node_lat": 28.1042,
      "nwps_node_lng": -80.5639,
      "nwps_node_distance_m": 1536,
      "nwps_buoy_id": null
    },
    {
      "slug": "monster-hole",
      "name": "Monster Hole",
      "nwps_wfo": "mlb",
      "nwps_grid": "CG1",
      "nwps_node_lat": 27.86114,
      "nwps_node_lng": -80.43667,
      "nwps_node_distance_m": 1274,
      "nwps_buoy_id": null
    },
    {
      "slug": "ocean-ave",
      "name": "Ocean Ave",
      "nwps_wfo": "mlb",
      "nwps_grid": "CG1",
      "nwps_node_lat": 28.07179,
      "nwps_node_lng": -80.54572,
      "nwps_node_distance_m": 1058,
      "nwps_buoy_id": null
    },
    {
      "slug": "sebastian-inlet",
      "name": "Sebastian Inlet",
      "nwps_wfo": "mlb",
      "nwps_grid": "CG1",
      "nwps_node_lat": 27.86114,
      "nwps_node_lng": -80.43667,
      "nwps_node_distance_m": 989,
      "nwps_buoy_id": null
    },
    {
      "slug": "spessard",
      "name": "Spessard",
      "nwps_wfo": "mlb",
      "nwps_grid": "CG1",
      "nwps_node_lat": 28.05558,
      "nwps_node_lng": -80.54572,
      "nwps_node_distance_m": 1205,
      "nwps_buoy_id": null
    },
    {
      "slug": "north-jetty",
      "name": "North Jetty",
      "nwps_wfo": "mlb",
      "nwps_grid": "CG1",
      "nwps_node_lat": 27.86114,
      "nwps_node_lng": -80.43667,
      "nwps_node_distance_m": 976,
      "nwps_buoy_id": null
    },
    {
      "slug": "playalinda-beach",
      "name": "Playalinda Beach",
      "nwps_wfo": "mlb",
      "nwps_grid": "CG1",
      "nwps_node_lat": 28.75236,
      "nwps_node_lng": -80.69113,
      "nwps_node_distance_m": 1270,
      "nwps_buoy_id": null
    }
  ],
  "held": [],
  "trust_by_buoy": {
    "44025": "PASS",
    "44065": "PASS",
    "44099": "PASS",
    "44091": "PASS",
    "44097": "PASS",
    "44098": "PASS"
  },
  "trust_buoy": "44025+44065",
  "trust_note": "44025 PASS r=0.896 circ_std=11.2 pairs=38; OKX south-shore only. radars+turtle-cove re-added (OFFWIN was a per-cycle verdict, not a placement fail). | NJ/phi (8) added: 44065 PASS r=0.865 circ_std=16.6 pairs=43. | trust_by_buoy is the HEIGHT-tagging gate (controls whether a spot consumes NWPS); the BUOY-CHECK disposition is governed by buoy_reference below. box/44098 (3) + gyx/44098 (11): buoy 44098 RETIRED as a reference on BOTH axes — structurally invalid 76 m offshore bank vs shallow nearshore node, no valid nearshore reference within 150 km (GoM shelf deep to the coast). These spots KEEP consuming NWPS height + raycast direction; only the buoy trust-CHECK is retired (no valid buoy to run it against), so nothing is height- or direction-gated against 44098 anymore.",
  "buoy_reference": {
    "_comment": "BUOY trust-CHECK disposition. apply_nwps_assignments READS this block (pending[]/retired[]/unverifiable[]) alongside trust_by_buoy to set each placed spot's nwps_direction_status — it is NOT inert. trust_by_buoy stays the HEIGHT-tagging gate (whether a spot consumes NWPS). THREE states: (1) 'pending' — a VALID reference buoy exists; the spots are placed on NWPS HEIGHT now but direction is NOT yet buoy-verified (no swell has run --trustcheck), so the buoy is NOT PASS in trust_by_buoy; the buoy-ready monitor WATCHES it and a qualifying swell accumulates a --trustcheck; direction is confirmed when the rolling verdict settles PASS. (2) 'retired' — NO valid nearshore reference buoy exists (e.g. 44098: a structurally-invalid 76 m offshore bank vs shallow nearshore nodes); the spots KEEP NWPS height + raycast direction on the listed 'axes'; the monitor EXCLUDES the buoy (never flagged). 'axes' is load-bearing: a record whose axes include 'direction' makes apply label those spots nwps_direction_status='unverifiable' (never 'verified') even when the buoy is PASS — that PASS is a HEIGHT verification only. (3) 'unverifiable' — a spot placed on NWPS HEIGHT (like pending, but with NO trust PASS and NO valid buoy on the row) whose direction can NEVER be buoy-verified: island-shadowed geometry where the nearest valid buoy is around a headland in different exposure. Keyed by SLUG; the row's nwps_buoy_id is null; the far 'nearest_candidate' is AUDIT-ONLY and is never used for placement or verification. apply checks unverifiable BEFORE the PASS branch, so these can never be relabeled 'verified'; the monitor NEVER watches them (no WATCH entry) and no far-buoy trust-check ever runs. Distinctions: pending = valid nearby buoy, awaiting a swell; retired = a buoy is nearby but structurally invalid; unverifiable = a valid buoy exists elsewhere but is geometrically wrong for these spots.",
    "retired": [
      {
        "zone": "box/44098",
        "wfo": "box",
        "buoy": "44098",
        "spots": 3,
        "axes": [
          "height",
          "direction"
        ],
        "tier": "NWPS height + raycast direction (unverified by buoy)",
        "reason": "44098 STRUCTURALLY INVALID as a buoy reference on BOTH axes — 76 m offshore bank vs shallow nearshore node; regime mismatch (shoaling/breaking/sheltering) makes both height AND direction comparison invalid; no valid nearshore reference within 150 km (GoM shelf deep to coast — permanent). These spots ride NWPS height skill + raycast direction, UNVERIFIED by an independent buoy — same disposition as any spot with no nearby buoy.",
        "verified": "--find-buoy live on the Mac: 33 candidates within 150 km of 44098, none a valid nearshore reference on either axis (least-bad 44007 Portland 49 m 3-m discus — MARGINAL). Live height r against 44098 swung 0.87/INCONCLUSIVE/0.52 across windows — the deep-bank-vs-nearshore regime mismatch, not NWPS error."
      },
      {
        "zone": "gyx/44098",
        "wfo": "gyx",
        "buoy": "44098",
        "spots": 11,
        "axes": [
          "height",
          "direction"
        ],
        "tier": "NWPS height + raycast direction (unverified by buoy)",
        "reason": "44098 STRUCTURALLY INVALID as a buoy reference on BOTH axes — 76 m offshore bank vs shallow nearshore node; regime mismatch (shoaling/breaking/sheltering) makes both height AND direction comparison invalid; no valid nearshore reference within 150 km (GoM shelf deep to coast — permanent). These spots ride NWPS height skill + raycast direction, UNVERIFIED by an independent buoy — same disposition as any spot with no nearby buoy.",
        "verified": "--find-buoy live on the Mac: 33 candidates within 150 km of 44098, none a valid nearshore reference on either axis (least-bad 44007 Portland 49 m 3-m discus — MARGINAL). Live height r against 44098 swung 0.87/INCONCLUSIVE/0.52 across windows — the deep-bank-vs-nearshore regime mismatch, not NWPS error."
      }
    ],
    "pending": [
      {
        "zone": "mtr/46240",
        "wfo": "mtr",
        "buoy": "46240",
        "reference": "46240 — Cabrillo Point nearshore Waverider (18 m); a VALID nearshore directional reference",
        "axes_pending": [
          "direction"
        ],
        "state": "OPTION B — place on NWPS HEIGHT now (height is buoy-independent), direction PENDING: no swell has verified direction against 46240 yet, so NO trust PASS. --trustcheck accumulates one event per qualifying swell; direction is confirmed when the rolling verdict settles PASS. NOT retired — a valid buoy exists (distinct from the 44098 both-axes retirement).",
        "spots": 24,
        "slugs": [
          "waddell-creek",
          "davenport-landing",
          "new-brighton-reef",
          "toes-over",
          "4-mile",
          "3-mile",
          "cowell-s-beach-children-s-surfing-area",
          "the-hook",
          "38th-avenue",
          "second-peak",
          "first-peak",
          "wind-and-sea",
          "pleasure-point",
          "sewer-peak",
          "steamer-lane",
          "mitchell-s-cove",
          "natural-bridges",
          "manresa-state-beach",
          "moss-landing",
          "marina-state-beach",
          "boneyard",
          "lovers-point",
          "monterey-beach",
          "carmel-beach"
        ],
        "to_place": "This record alone tags NOTHING. To place these on NWPS height: (1) run `--validate --wfo mtr` on the Mac to compute each spot's nwps_node_lat/lng/distance, (2) promote them into 'spots' with nwps_buoy_id 46240, (3) set trust_by_buoy['46240']='PASS' (the HEIGHT-tagging gate apply_nwps_assignments requires — with 46240 absent from trust_by_buoy the 24 are HELD, not placed). Direction remains pending here until --trustcheck settles the rolling verdict to PASS."
      },
      {
        "zone": "mtr/46237",
        "wfo": "mtr",
        "buoy": "46237",
        "reference": "46237 — San Francisco Bar nearshore Waverider (17 m); a VALID nearshore directional reference (--find-buoy)",
        "axes_pending": [
          "direction"
        ],
        "state": "OPTION B — place on NWPS HEIGHT now (height is buoy-independent), direction PENDING: no swell has verified direction against 46237 yet, so NO trust PASS. --trustcheck accumulates one event per qualifying swell; direction is confirmed when the rolling verdict settles PASS. NOT retired — a valid buoy exists.",
        "spots": 13,
        "slugs": [
          "jenner-beach",
          "salmon-creek-beach",
          "doran-beach",
          "dillon-beach",
          "point-reyes-north",
          "bolinas",
          "cronkhite",
          "fort-point",
          "sharp-park",
          "rockaway-beach-pacifica",
          "pacifica-linda-mar",
          "half-moon-bay-jetty",
          "half-moon-bay"
        ],
        "to_place": "This record alone tags NOTHING. Node lat/lng must be REGENERATED (only node_km was captured before): on the Mac run `--validate --wfo mtr --batch <these 13 slugs>` to rewrite nwps_mtr_validate_out.json with their node lat/lng, then `promote_nwps_validate --buoy 46237 --slugs <these 13>` merges them into 'spots'. Placement then via the pending path; 46237 stays OUT of trust_by_buoy (no PASS)."
      },
      {
        "zone": "mtr/46284",
        "wfo": "mtr",
        "buoy": "46284",
        "reference": "46284 — Soquel Cove South nearshore Waverider (24 m); a VALID nearshore directional reference (--find-buoy)",
        "axes_pending": [
          "direction"
        ],
        "state": "OPTION B — place on NWPS HEIGHT now (height is buoy-independent), direction PENDING: no swell has verified direction against 46284 yet, so NO trust PASS. --trustcheck accumulates one event per qualifying swell; direction is confirmed when the rolling verdict settles PASS. NOT retired — a valid buoy exists.",
        "spots": 2,
        "slugs": [
          "pigeon-point",
          "scotts-creek"
        ],
        "to_place": "This record alone tags NOTHING. Node coords for these 2 are in the current (Mac) nwps_mtr_validate_out.json; `promote_nwps_validate --buoy 46284 --slugs pigeon-point,scotts-creek` merges them into 'spots'. Do this BEFORE re-validating the 46237 batch (which overwrites the validate-out). Placement via the pending path; 46284 stays OUT of trust_by_buoy (no PASS)."
      },
      {
        "zone": "lox/46268",
        "wfo": "lox",
        "buoy": "46268",
        "reference": "46268 — Topanga Nearshore Waverider (20 m); a VALID nearshore directional reference (--find-buoy)",
        "axes_pending": [
          "direction"
        ],
        "state": "OPTION B — place on NWPS HEIGHT now (height is buoy-independent), direction PENDING: no swell has verified direction against 46268 yet, so NO trust PASS. --trustcheck accumulates one event per qualifying swell; direction is confirmed when the rolling verdict settles PASS. NOT retired — a valid buoy exists.",
        "spots": 18,
        "slugs": [
          "county-line",
          "leo-carrillo-state-beach",
          "chart-house",
          "sunset-point",
          "topanga-beach",
          "will-rogers",
          "malibu-point",
          "malibu-surfrider-beach",
          "santa-monica-beach",
          "zuma-beach",
          "santa-monica-pier",
          "point-dume",
          "venice-beach-breakwater",
          "venice-beach-pier",
          "dockweiler-beach",
          "shitpipe",
          "el-porto",
          "bruce-s-beach"
        ],
        "to_place": "This record alone tags NOTHING. On the Mac: `--validate --wfo lox --batch <these 18 slugs>` to (re)compute each spot's nwps_node_lat/lng into nwps_lox_validate_out.json, then `promote_nwps_validate --validate-out scripts/nwps_lox_validate_out.json --buoy 46268 --slugs <these 18> --apply` merges them into 'spots'. Placement via the pending path; 46268 stays OUT of trust_by_buoy (no PASS)."
      },
      {
        "zone": "mtr/46215",
        "wfo": "mtr",
        "buoy": "46215",
        "reference": "46215 — Diablo Canyon Nearshore Waverider (27 m); a VALID nearshore directional reference (--find-buoy)",
        "axes_pending": [
          "direction"
        ],
        "state": "OPTION B — place on NWPS HEIGHT now (height is buoy-independent), direction PENDING: no swell has verified direction against 46215 yet, so NO trust PASS. --trustcheck accumulates one event per qualifying swell; direction is confirmed when the rolling verdict settles PASS. NOT retired — a valid buoy exists.",
        "spots": 12,
        "grid_crossing": "All 12 SLO spots carry nwps_wfo='mtr' and nwps_buoy_id='46215', but HEIGHT is supplied by TWO NWPS grids: 8 (andrew-molera-state-park, sand-dollar-beach, piedras-blancas, san-simeon, cayucos-pier, morro-rock, cable-landing, avila-beach — Big Sur→Avila) place on the mtr grid; 4 (shell-beach-north, shell-beach, pismo-beach-pier, grover-beach — Shell Beach→Grover) place on the LOX grid, because the mtr/lox marine-forecast boundary runs through Pismo and those 4 have a valid nearshore node only on the lox nest. Their nwps_wfo label stays 'mtr' (NOT relabeled to lox) — buoy 46215 is the valid direction reference for all 12 regardless of which grid supplies height. Keeping nwps_wfo='mtr' lets the single (mtr, 46215) pending key cover all 12. Promote the 4 lox-grid spots with `--buoy 46215 --wfo mtr` on the lox validate-out: the --wfo override takes the lox-grid node coords while keeping the label mtr.",
        "slugs": [
          "andrew-molera-state-park",
          "sand-dollar-beach",
          "piedras-blancas",
          "san-simeon",
          "cayucos-pier",
          "morro-rock",
          "cable-landing",
          "avila-beach",
          "shell-beach-north",
          "shell-beach",
          "pismo-beach-pier",
          "grover-beach"
        ],
        "to_place": "This record alone tags NOTHING. Two-pass promote, BOTH under buoy 46215 (merge-by-slug accumulates across the two source files): (1) the 8 mtr-grid spots from nwps_mtr_validate_out.json — `promote_nwps_validate --validate-out scripts/nwps_mtr_validate_out.json --buoy 46215 --slugs andrew-molera-state-park,sand-dollar-beach,piedras-blancas,san-simeon,cayucos-pier,morro-rock,cable-landing,avila-beach --apply`; (2) the 4 lox-grid Pismo spots from nwps_lox_validate_out.json — `promote_nwps_validate --validate-out scripts/nwps_lox_validate_out.json --buoy 46215 --wfo mtr --slugs shell-beach-north,shell-beach,pismo-beach-pier,grover-beach --apply` (the --wfo mtr override keeps the label mtr while taking the lox-grid nodes). Do pass (2) BEFORE re-validating the lox grid for anything else (it overwrites nwps_lox_validate_out.json). Placement via the pending path; 46215 stays OUT of trust_by_buoy (no PASS)."
      },
      {
        "zone": "lox/46256",
        "wfo": "lox",
        "buoy": "46256",
        "reference": "46256 — Long Beach Channel Nearshore Waverider (23 m); a VALID nearshore directional reference (--find-buoy: 22 km from palos-verdes-cove, 26 km from newport-jetties; the closer deep buoys 46253/46221 were correctly rejected as STRUCTURALLY INVALID)",
        "axes_pending": [
          "direction"
        ],
        "state": "OPTION B — place on NWPS HEIGHT now (height is buoy-independent), direction PENDING: no swell has verified direction against 46256 yet, so NO trust PASS. --trustcheck accumulates one event per qualifying swell; direction is confirmed when the rolling verdict settles PASS. NOT retired — a valid buoy exists.",
        "spots": 22,
        "slugs": [
          "hermosa-beach-california",
          "hermosa-beach-pier",
          "redondo-breakwater",
          "redondo-beach-california",
          "rat-beach",
          "haggarty-s",
          "palos-verdes-cove",
          "seal-beach-jetty",
          "seal-beach-pier",
          "surfside-jetty",
          "surfside-california",
          "cabrillo-beach",
          "white-point",
          "bolsa-chica-state-beach",
          "huntington-cliffs",
          "huntington-beach-pier",
          "huntington-beach-california",
          "river-jetties",
          "newport-jetties",
          "blackies",
          "newport-point",
          "newport-beach-california"
        ],
        "to_place": "This record alone tags NOTHING. Node coords for these 22 are in the current (Mac) nwps_lox_validate_out.json (freshly written by `--validate --wfo lox --batch <these 22 slugs>`); `promote_nwps_validate --validate-out scripts/nwps_lox_validate_out.json --buoy 46256 --slugs <these 22> --apply` merges them into 'spots'. Placement via the pending path; 46256 stays OUT of trust_by_buoy (no PASS)."
      }
    ],
    "unverifiable": [
      {
        "zone": "lox/santa-barbara-channel",
        "wfo": "lox",
        "reason": "ISLAND-SHADOWED — Santa Barbara Channel (Point Conception → Point Dume: Refugio / El Capitan → Santa Barbara / Carpinteria → Ventura → Oxnard / Port Hueneme). The Channel Islands block the dominant swell window. --find-buoy returns VALID nearshore references only at 72–96 km around Point Conception, in a different wave-exposure regime (46268 / 46215); every CLOSE Channel buoy (46053, 46054, 46221) is deep-water and was correctly rejected as STRUCTURALLY INVALID. Direction is PERMANENTLY not buoy-verifiable here — we do NOT trust-verify against a far buoy (that would manufacture unreliable verdicts). These spots ride NWPS HEIGHT skill + raycast direction; raycast handles the island-shadow geometry. Distinct from 'pending' (a valid nearby buoy exists, awaiting a swell to verify) and from 'retired' (a nearby buoy is structurally invalid on both axes): here the only usable buoy is geometrically wrong for these spots (far, around a headland, different exposure), so direction can NEVER be buoy-verified.",
        "nearest_candidate": "46268 / 46215 (AUDIT ONLY — never used for placement or verification)",
        "slugs": [
          "refugio-state-beach",
          "el-capitan-state-beach",
          "rockpile",
          "miramar",
          "hammonds",
          "devereux",
          "campus-point-ucsb",
          "sandspit",
          "leadbetter-beach",
          "mesa-lane",
          "carpinteria-state-beach",
          "tarpits",
          "rincon",
          "mussel-shoals",
          "faria-beach",
          "mondos",
          "pitas-point",
          "emma-wood-state-beach",
          "c-street-ventura",
          "ventura-point",
          "ventura-harbor",
          "oxnard-beach",
          "silver-strand",
          "port-hueneme"
        ],
        "to_place": "24 island-shadowed spots (20 OK + 4 OFFWIN: rockpile, sandspit, leadbetter-beach, ventura-harbor — off-window for today's swell angle, still placeable). Node coords are in the current (Mac) nwps_lox_validate_out.json (freshly written by `--validate --wfo lox --batch <these 24 slugs>`; nodes 0.60–4.67 km, within the grid-aware cap). Promote with NO buoy: `promote_nwps_validate --validate-out scripts/nwps_lox_validate_out.json --no-buoy --slugs <these 24> --apply` merges them into 'spots' with nwps_buoy_id=null. apply then places them height-live with nwps_direction_status='unverifiable' (the unverifiable[] slug branch is checked BEFORE the PASS branch, so they can never be relabeled 'verified'). No buoy is added to trust_by_buoy or pending[], and these spots get NO WATCH entry (the monitor never flags them)."
      },
      {
        "zone": "eka/north-coast",
        "wfo": "eka",
        "reason": "NO valid nearshore directional buoy EXISTS on the far NorCal coast (Crescent City → Mendocino). Every --find-buoy candidate within range is a deep-water offshore platform (46027 60 m, 46244 117 m, 46213 346 m) or a NOS tide gauge (not a wave buoy) — none is a shallow-coast directional proxy. This is PERMANENT geography: there is simply no buoy to ever verify against — the retire-BOTH-axes case, same category as 44098's Gulf of Maine. DISTINCT from lox/santa-barbara-channel (which HAS valid buoys that are geometrically shadowed): here no valid buoy exists at all, so there is nothing to shadow. NOT a pending state. These spots ride NWPS HEIGHT (eka grid) + raycast direction, with direction PERMANENTLY not buoy-verifiable.",
        "nearest_candidate": "none valid (46027 / 46244 / 46213 all deep-water STRUCTURALLY INVALID — AUDIT ONLY, never used for placement or verification)",
        "slugs": [
          "crescent-city-beach",
          "agate-beach",
          "trinidad-state-beach",
          "moonstone-beach-humboldt",
          "shelter-cove",
          "westport",
          "ten-mile-beach",
          "mackerricher",
          "jug-handle",
          "caspar",
          "mendocino"
        ],
        "to_place": "11 far-NorCal spots — the FIRST eka placement. Node coords are in the (Mac) nwps_eka_validate_out.json (a NEW file, written by `--validate --wfo eka --batch <these 11 slugs>`). Promote with NO buoy: `promote_nwps_validate --validate-out scripts/nwps_eka_validate_out.json --no-buoy --slugs <these 11> --apply` merges them into 'spots' with nwps_buoy_id=null. apply then places them height-live with nwps_direction_status='unverifiable' (the slug branch is checked BEFORE the PASS branch, so never relabeled 'verified'). No buoy is added to trust_by_buoy or pending[], and these spots get NO WATCH entry (the monitor never flags them)."
      },
      {
        "zone": "mtr/north-pocket",
        "wfo": "mtr",
        "reason": "NO valid nearshore directional buoy on the north Sonoma / Mendocino coast at Point Arena. The nearest candidates are deep-water (46014, 335 m — STRUCTURALLY INVALID); no shallow-coast Waverider exists. The 46237 (SF Bar) pending zone begins to the SOUTH at Jenner, so this lone north pocket has no buoy of its own. PERMANENT geography — no buoy to ever verify against, the retire-BOTH-axes case (same category as 44098's Gulf of Maine). DISTINCT from lox/santa-barbara-channel (valid-but-shadowed buoys): here no valid buoy exists at all. NWPS HEIGHT (mtr grid) + raycast direction; direction PERMANENTLY not buoy-verifiable.",
        "nearest_candidate": "none valid (46014 deep-water STRUCTURALLY INVALID — AUDIT ONLY, never used for placement or verification)",
        "slugs": [
          "point-arena"
        ],
        "to_place": "1 spot (Point Arena) — the north pocket above the 46237 SF-Bar pending zone. Node coords are in the (Mac) nwps_mtr_validate_out.json. Promote with NO buoy: `promote_nwps_validate --validate-out scripts/nwps_mtr_validate_out.json --no-buoy --slugs point-arena --apply` merges it into 'spots' with nwps_buoy_id=null. apply then places it height-live with nwps_direction_status='unverifiable'. No buoy is added to trust_by_buoy or pending[], and it gets NO WATCH entry (the monitor never flags it)."
      }
    ]
  }
}